{"den-haag-speeltuinen/den-haag-speeltuinen:52.04673,4.30048":{"address":null,"categories":["playground"],"images":[],"last_updated":"2026-06-22","lat":52.04673,"lon":4.30048,"name":"Fraeylemastraat","opening_hours":null,"provenance":{"/categories/0":"den-haag-speeltuinen/den-haag-speeltuinen:52.04673,4.30048","lat":"den-haag-speeltuinen/den-haag-speeltuinen:52.04673,4.30048","lon":"den-haag-speeltuinen/den-haag-speeltuinen:52.04673,4.30048","name":"den-haag-speeltuinen/den-haag-speeltuinen:52.04673,4.30048"},"sources":[{"source_id":"den-haag-speeltuinen","source_record_id":"den-haag-speeltuinen:52.04673,4.30048","source_url":null},{"source_id":"den-haag-speeltuinen","source_record_id":"den-haag-speeltuinen:52.04691,4.30034","source_url":null},{"source_id":"den-haag-speeltuinen","source_record_id":"den-haag-speeltuinen:52.04729,4.30006","source_url":null},{"source_id":"den-haag-speeltuinen","source_record_id":"den-haag-speeltuinen:52.04745,4.29994","source_url":null}],"tags":{},"website":null},"den-haag-speeltuinen/den-haag-speeltuinen:52.05436,4.24337":{"address":null,"categories":["playground"],"images":[],"last_updated":"2026-06-22","lat":52.05436,"lon":4.24337,"name":"Burgemeester Françoisplein","opening_hours":null,"provenance":{"/categories/0":"den-haag-speeltuinen/den-haag-speeltuinen:52.05436,4.24337","lat":"den-haag-speeltuinen/den-haag-speeltuinen:52.05436,4.24337","lon":"den-haag-speeltuinen/den-haag-speeltuinen:52.05436,4.24337","name":"den-haag-speeltuinen/den-haag-speeltuinen:52.05436,4.24337"},"sources":[{"source_id":"den-haag-speeltuinen","source_record_id":"den-haag-speeltuinen:52.05436,4.24337","source_url":null}],"tags":{},"website":null},"den-haag-speeltuinen/den-haag-speeltuinen:52.05467,4.2663":{"address":null,"categories":["playground"],"images":[],"last_updated":"2026-06-22","lat":52.05467,"lon":4.2663,"name":"Constance Gelderblomlaan","opening_hours":null,"provenance":{"/categories/0":"den-haag-speeltuinen/den-haag-speeltuinen:52.05467,4.2663","lat":"den-haag-speeltuinen/den-haag-speeltuinen:52.05467,4.2663","lon":"den-haag-speeltuinen/den-haag-speeltuinen:52.05467,4.2663","name":"den-haag-speeltuinen/den-haag-speeltuinen:52.05467,4.2663"},"sources":[{"source_id":"den-haag-speeltuinen","source_record_id":"den-haag-speeltuinen:52.05467,4.2663","source_url":null}],"tags":{},"website":null},"den-haag-speeltuinen/den-haag-speeltuinen:52.07024,4.29917":{"address":null,"categories":["playground"],"images":[],"last_updated":"2026-06-22","lat":52.07024,"lon":4.29917,"name":"Delftselaan","opening_hours":null,"provenance":{"/categories/0":"den-haag-speeltuinen/den-haag-speeltuinen:52.07024,4.29917","lat":"den-haag-speeltuinen/den-haag-speeltuinen:52.07024,4.29917","lon":"den-haag-speeltuinen/den-haag-speeltuinen:52.07024,4.29917","name":"den-haag-speeltuinen/den-haag-speeltuinen:52.07024,4.29917"},"sources":[{"source_id":"den-haag-speeltuinen","source_record_id":"den-haag-speeltuinen:52.07024,4.29917","source_url":null}],"tags":{},"website":null},"eindhoven-speeltuinen/eindhoven-speeltuinen:51.45362,5.46076":{"address":null,"categories":["playground"],"images":[],"last_updated":"2026-06-22","lat":51.45362,"lon":5.46076,"name":"Speelplek 477","opening_hours":null,"provenance":{"/categories/0":"eindhoven-speeltuinen/eindhoven-speeltuinen:51.45362,5.46076","lat":"eindhoven-speeltuinen/eindhoven-speeltuinen:51.45362,5.46076","lon":"eindhoven-speeltuinen/eindhoven-speeltuinen:51.45362,5.46076","name":"eindhoven-speeltuinen/eindhoven-speeltuinen:51.45362,5.46076"},"sources":[{"source_id":"eindhoven-speeltuinen","source_record_id":"eindhoven-speeltuinen:51.45362,5.46076","source_url":null}],"tags":{},"website":null},"eindhoven-speeltuinen/eindhoven-speeltuinen:51.46136,5.47701":{"address":null,"categories":["playground"],"images":[],"last_updated":"2026-06-22","lat":51.46136,"lon":5.47701,"name":"Speelplek 77","opening_hours":null,"provenance":{"/categories/0":"eindhoven-speeltuinen/eindhoven-speeltuinen:51.46136,5.47701","lat":"eindhoven-speeltuinen/eindhoven-speeltuinen:51.46136,5.47701","lon":"eindhoven-speeltuinen/eindhoven-speeltuinen:51.46136,5.47701","name":"eindhoven-speeltuinen/eindhoven-speeltuinen:51.46136,5.47701"},"sources":[{"source_id":"eindhoven-speeltuinen","source_record_id":"eindhoven-speeltuinen:51.46136,5.47701","source_url":null}],"tags":{},"website":null},"museum-nl/museum-nl:het-mow-museum-westerwolde":{"address":{"city":"Bellingwolde","housenumber":"161","postcode":"9695 AE","street":"Hoofdweg"},"categories":["museum"],"images":[],"last_updated":"2026-06-21","lat":53.11305,"lon":7.16199,"name":"Het MOW | Museum Westerwolde","opening_hours":null,"provenance":{"/categories/0":"museum-nl/museum-nl:het-mow-museum-westerwolde","/tags/description":"museum-nl/museum-nl:het-mow-museum-westerwolde","/tags/phone":"museum-nl/museum-nl:het-mow-museum-westerwolde","address":"museum-nl/museum-nl:het-mow-museum-westerwolde","lat":"museum-nl/museum-nl:het-mow-museum-westerwolde","lon":"museum-nl/museum-nl:het-mow-museum-westerwolde","name":"museum-nl/museum-nl:het-mow-museum-westerwolde","website":"museum-nl/museum-nl:het-mow-museum-westerwolde"},"sources":[{"source_id":"museum-nl","source_record_id":"museum-nl:het-mow-museum-westerwolde","source_url":null}],"tags":{"description":"MOW in Bellingwolde is een modern en eigenzinnig museum, met steeds weer nieuwe tentoonstellingen.","phone":"597 53 15 09"},"website":"https://www.hetmow.nl/"},"museum-nl/museum-nl:het-nieuwe-domein":{"address":{"city":"Sittard","housenumber":"6","postcode":"6131 ER","street":"Kapittelstraat"},"categories":["museum"],"images":[],"last_updated":"2026-06-21","lat":50.99918,"lon":5.86837,"name":"Het Nieuwe Domein","opening_hours":null,"provenance":{"/categories/0":"museum-nl/museum-nl:het-nieuwe-domein","/tags/description":"museum-nl/museum-nl:het-nieuwe-domein","/tags/phone":"museum-nl/museum-nl:het-nieuwe-domein","address":"museum-nl/museum-nl:het-nieuwe-domein","lat":"museum-nl/museum-nl:het-nieuwe-domein","lon":"museum-nl/museum-nl:het-nieuwe-domein","name":"museum-nl/museum-nl:het-nieuwe-domein","website":"museum-nl/museum-nl:het-nieuwe-domein"},"sources":[{"source_id":"museum-nl","source_record_id":"museum-nl:het-nieuwe-domein","source_url":null}],"tags":{"description":"Museum Het Nieuwe Domein, museum voor hedendaagse kunst en erfgoed in Sittard.","phone":"0885995554"},"website":"https://www.hetnieuwedomein.nl/"},"museum-nl/museum-nl:museum-fort-pannerden":{"address":{"city":"Doornenburg","housenumber":"1","postcode":"6686 MV","street":"Waaldijk"},"categories":["museum"],"images":[],"last_updated":"2026-06-21","lat":51.88097,"lon":6.02659,"name":"Museum Fort Pannerden","opening_hours":null,"provenance":{"/categories/0":"museum-nl/museum-nl:museum-fort-pannerden","/tags/description":"museum-nl/museum-nl:museum-fort-pannerden","/tags/phone":"museum-nl/museum-nl:museum-fort-pannerden","address":"museum-nl/museum-nl:museum-fort-pannerden","lat":"museum-nl/museum-nl:museum-fort-pannerden","lon":"museum-nl/museum-nl:museum-fort-pannerden","name":"museum-nl/museum-nl:museum-fort-pannerden","website":"museum-nl/museum-nl:museum-fort-pannerden"},"sources":[{"source_id":"museum-nl","source_record_id":"museum-nl:museum-fort-pannerden","source_url":null}],"tags":{"description":"Het fort van de Nieuwe Hollandse Waterlinie ligt verborgen onder de aarde en is toch 5 verdiepingen hoog. Kom jij ook?","phone":"0481 420089"},"website":"https://fortpannerden.eu/"},"osm/node/10013951529":{"address":null,"categories":["playground"],"images":[],"last_updated":"2026-06-22","lat":52.51083,"lon":6.55169,"name":"node/10013951529","opening_hours":null,"provenance":{"/categories/0":"osm/node/10013951529","lat":"osm/node/10013951529","lon":"osm/node/10013951529","name":"osm/node/10013951529"},"sources":[{"source_id":"osm","source_record_id":"node/10013951529","source_url":null}],"tags":{},"website":null},"osm/node/10159550479":{"address":null,"categories":["playground"],"images":[],"last_updated":"2026-06-22","lat":52.65304,"lon":4.82959,"name":"node/10159550479","opening_hours":null,"provenance":{"/categories/0":"osm/node/10159550479","lat":"osm/node/10159550479","lon":"osm/node/10159550479","name":"osm/node/10159550479"},"sources":[{"source_id":"osm","source_record_id":"node/10159550479","source_url":null}],"tags":{},"website":null},"osm/node/10231135943":{"address":null,"categories":["playground"],"images":[],"last_updated":"2026-06-22","lat":52.29583,"lon":4.69641,"name":"node/10231135943","opening_hours":null,"provenance":{"/categories/0":"osm/node/10231135943","lat":"osm/node/10231135943","lon":"osm/node/10231135943","name":"osm/node/10231135943"},"sources":[{"source_id":"osm","source_record_id":"node/10231135943","source_url":null}],"tags":{},"website":null},"osm/node/10554622760":{"address":null,"categories":["playground"],"images":[],"last_updated":"2026-06-22","lat":52.40732,"lon":6.56931,"name":"node/10554622760","opening_hours":null,"provenance":{"/categories/0":"osm/node/10554622760","lat":"osm/node/10554622760","lon":"osm/node/10554622760","name":"osm/node/10554622760"},"sources":[{"source_id":"osm","source_record_id":"node/10554622760","source_url":null}],"tags":{},"website":null},"osm/node/10741590917":{"address":null,"categories":["playground"],"images":[],"last_updated":"2026-06-22","lat":51.73678,"lon":3.83251,"name":"node/10741590917","opening_hours":null,"provenance":{"/categories/0":"osm/node/10741590917","lat":"osm/node/10741590917","lon":"osm/node/10741590917","name":"osm/node/10741590917"},"sources":[{"source_id":"osm","source_record_id":"node/10741590917","source_url":null}],"tags":{},"website":null},"osm/node/11351161841":{"address":null,"categories":["playground"],"images":[],"last_updated":"2026-06-22","lat":51.96352,"lon":6.31275,"name":"node/11351161841","opening_hours":null,"provenance":{"/categories/0":"osm/node/11351161841","lat":"osm/node/11351161841","lon":"osm/node/11351161841","name":"osm/node/11351161841"},"sources":[{"source_id":"osm","source_record_id":"node/11351161841","source_url":null}],"tags":{},"website":null},"osm/node/11515892914":{"address":null,"categories":["playground"],"images":[],"last_updated":"2026-06-22","lat":51.71224,"lon":4.09261,"name":"node/11515892914","opening_hours":null,"provenance":{"/categories/0":"osm/node/11515892914","lat":"osm/node/11515892914","lon":"osm/node/11515892914","name":"osm/node/11515892914"},"sources":[{"source_id":"osm","source_record_id":"node/11515892914","source_url":null}],"tags":{},"website":null},"osm/node/11778706360":{"address":null,"categories":["playground"],"images":[],"last_updated":"2026-06-22","lat":51.83953,"lon":4.69693,"name":"node/11778706360","opening_hours":null,"provenance":{"/categories/0":"osm/node/11778706360","lat":"osm/node/11778706360","lon":"osm/node/11778706360","name":"osm/node/11778706360"},"sources":[{"source_id":"osm","source_record_id":"node/11778706360","source_url":null}],"tags":{},"website":null},"osm/node/12129505485":{"address":null,"categories":["playground"],"images":[],"last_updated":"2026-06-22","lat":51.39764,"lon":3.89665,"name":"node/12129505485","opening_hours":null,"provenance":{"/categories/0":"osm/node/12129505485","lat":"osm/node/12129505485","lon":"osm/node/12129505485","name":"osm/node/12129505485"},"sources":[{"source_id":"osm","source_record_id":"node/12129505485","source_url":null}],"tags":{},"website":null},"osm/node/12242168329":{"address":null,"categories":["playground"],"images":[],"last_updated":"2026-06-22","lat":52.2765,"lon":6.96576,"name":"node/12242168329","opening_hours":null,"provenance":{"/categories/0":"osm/node/12242168329","lat":"osm/node/12242168329","lon":"osm/node/12242168329","name":"osm/node/12242168329"},"sources":[{"source_id":"osm","source_record_id":"node/12242168329","source_url":null}],"tags":{},"website":null},"osm/node/12309768105":{"address":null,"categories":["playground"],"images":[],"last_updated":"2026-06-22","lat":51.92011,"lon":6.35557,"name":"node/12309768105","opening_hours":null,"provenance":{"/categories/0":"osm/node/12309768105","lat":"osm/node/12309768105","lon":"osm/node/12309768105","name":"osm/node/12309768105"},"sources":[{"source_id":"osm","source_record_id":"node/12309768105","source_url":null}],"tags":{},"website":null},"osm/node/12523547805":{"address":null,"categories":["playground"],"images":[],"last_updated":"2026-06-22","lat":52.71748,"lon":5.07477,"name":"node/12523547805","opening_hours":null,"provenance":{"/categories/0":"osm/node/12523547805","lat":"osm/node/12523547805","lon":"osm/node/12523547805","name":"osm/node/12523547805"},"sources":[{"source_id":"osm","source_record_id":"node/12523547805","source_url":null}],"tags":{},"website":null},"osm/node/12778474567":{"address":null,"categories":["playground"],"images":[],"last_updated":"2026-06-22","lat":52.2563,"lon":4.72899,"name":"node/12778474567","opening_hours":null,"provenance":{"/categories/0":"osm/node/12778474567","lat":"osm/node/12778474567","lon":"osm/node/12778474567","name":"osm/node/12778474567"},"sources":[{"source_id":"osm","source_record_id":"node/12778474567","source_url":null}],"tags":{},"website":null},"osm/node/13004824626":{"address":null,"categories":["playground"],"images":[],"last_updated":"2026-06-22","lat":52.96137,"lon":5.90953,"name":"node/13004824626","opening_hours":null,"provenance":{"/categories/0":"osm/node/13004824626","lat":"osm/node/13004824626","lon":"osm/node/13004824626","name":"osm/node/13004824626"},"sources":[{"source_id":"osm","source_record_id":"node/13004824626","source_url":null}],"tags":{},"website":null},"osm/node/13607806409":{"address":null,"categories":["playground"],"images":[],"last_updated":"2026-06-22","lat":52.19593,"lon":6.87544,"name":"node/13607806409","opening_hours":null,"provenance":{"/categories/0":"osm/node/13607806409","lat":"osm/node/13607806409","lon":"osm/node/13607806409","name":"osm/node/13607806409"},"sources":[{"source_id":"osm","source_record_id":"node/13607806409","source_url":null}],"tags":{},"website":null},"osm/node/2647617225":{"address":null,"categories":["playground"],"images":[],"last_updated":"2026-06-22","lat":52.04633,"lon":5.07816,"name":"Pallasburg","opening_hours":null,"provenance":{"/categories/0":"osm/node/2647617225","lat":"osm/node/2647617225","lon":"osm/node/2647617225","name":"osm/node/2647617225"},"sources":[{"source_id":"osm","source_record_id":"node/2647617225","source_url":null}],"tags":{},"website":null},"osm/node/2757038013":{"address":null,"categories":["play_park"],"images":[],"last_updated":"2026-06-22","lat":53.37117,"lon":5.22156,"name":"De Dôbe","opening_hours":null,"provenance":{"/categories/0":"osm/node/2757038013","lat":"osm/node/2757038013","lon":"osm/node/2757038013","name":"osm/node/2757038013"},"sources":[{"source_id":"osm","source_record_id":"node/2757038013","source_url":null}],"tags":{},"website":null},"osm/node/2782293308":{"address":null,"categories":["play_park"],"images":[],"last_updated":"2026-06-22","lat":52.0239,"lon":4.68928,"name":"Groenhovenbad","opening_hours":null,"provenance":{"/categories/0":"osm/node/2782293308","/external_ids/wikidata":"osm/node/2782293308","lat":"osm/node/2782293308","lon":"osm/node/2782293308","name":"osm/node/2782293308"},"sources":[{"source_id":"osm","source_record_id":"node/2782293308","source_url":null}],"tags":{},"website":null},"osm/node/2878852129":{"address":null,"categories":["playground"],"images":[],"last_updated":"2026-06-22","lat":51.54396,"lon":4.47792,"name":"Playground Kalsdonk","opening_hours":null,"provenance":{"/categories/0":"osm/node/2878852129","lat":"osm/node/2878852129","lon":"osm/node/2878852129","name":"osm/node/2878852129"},"sources":[{"source_id":"osm","source_record_id":"node/2878852129","source_url":null}],"tags":{},"website":null},"osm/node/2901112174":{"address":null,"categories":["playground"],"images":[],"last_updated":"2026-06-22","lat":52.34698,"lon":6.68297,"name":"node/2901112174","opening_hours":null,"provenance":{"/categories/0":"osm/node/2901112174","lat":"osm/node/2901112174","lon":"osm/node/2901112174","name":"osm/node/2901112174"},"sources":[{"source_id":"osm","source_record_id":"node/2901112174","source_url":null}],"tags":{},"website":null},"osm/node/3043004080":{"address":null,"categories":["playground"],"images":[],"last_updated":"2026-06-22","lat":52.16648,"lon":4.9989,"name":"node/3043004080","opening_hours":null,"provenance":{"/categories/0":"osm/node/3043004080","lat":"osm/node/3043004080","lon":"osm/node/3043004080","name":"osm/node/3043004080"},"sources":[{"source_id":"osm","source_record_id":"node/3043004080","source_url":null}],"tags":{},"website":null},"osm/node/3094901505":{"address":null,"categories":["playground"],"images":[],"last_updated":"2026-06-22","lat":52.5019,"lon":5.4927,"name":"node/3094901505","opening_hours":null,"provenance":{"/categories/0":"osm/node/3094901505","lat":"osm/node/3094901505","lon":"osm/node/3094901505","name":"osm/node/3094901505"},"sources":[{"source_id":"osm","source_record_id":"node/3094901505","source_url":null}],"tags":{},"website":null},"osm/node/3487972846":{"address":null,"categories":["playground"],"images":[],"last_updated":"2026-06-22","lat":51.92609,"lon":4.45223,"name":"Biotopia Binnenspeeltuin","opening_hours":null,"provenance":{"/categories/0":"osm/node/3487972846","lat":"osm/node/3487972846","lon":"osm/node/3487972846","name":"osm/node/3487972846"},"sources":[{"source_id":"osm","source_record_id":"node/3487972846","source_url":null}],"tags":{},"website":null},"osm/node/3530737332":{"address":null,"categories":["playground"],"images":[],"last_updated":"2026-06-22","lat":52.75715,"lon":6.36018,"name":"node/3530737332","opening_hours":null,"provenance":{"/categories/0":"osm/node/3530737332","lat":"osm/node/3530737332","lon":"osm/node/3530737332","name":"osm/node/3530737332"},"sources":[{"source_id":"osm","source_record_id":"node/3530737332","source_url":null}],"tags":{},"website":null},"osm/node/3674005551":{"address":null,"categories":["playground"],"images":[],"last_updated":"2026-06-22","lat":51.83017,"lon":4.00648,"name":"node/3674005551","opening_hours":null,"provenance":{"/categories/0":"osm/node/3674005551","lat":"osm/node/3674005551","lon":"osm/node/3674005551","name":"osm/node/3674005551"},"sources":[{"source_id":"osm","source_record_id":"node/3674005551","source_url":null}],"tags":{},"website":null},"osm/node/3781213258":{"address":null,"categories":["playground"],"images":[],"last_updated":"2026-06-22","lat":52.75232,"lon":6.88857,"name":"node/3781213258","opening_hours":null,"provenance":{"/categories/0":"osm/node/3781213258","lat":"osm/node/3781213258","lon":"osm/node/3781213258","name":"osm/node/3781213258"},"sources":[{"source_id":"osm","source_record_id":"node/3781213258","source_url":null}],"tags":{},"website":null},"osm/node/3962149657":{"address":null,"categories":["playground"],"images":[],"last_updated":"2026-06-22","lat":52.24922,"lon":5.16041,"name":"node/3962149657","opening_hours":null,"provenance":{"/categories/0":"osm/node/3962149657","lat":"osm/node/3962149657","lon":"osm/node/3962149657","name":"osm/node/3962149657"},"sources":[{"source_id":"osm","source_record_id":"node/3962149657","source_url":null}],"tags":{},"website":null},"osm/node/4291572316":{"address":null,"categories":["playground"],"images":[],"last_updated":"2026-06-22","lat":51.80766,"lon":4.67978,"name":"node/4291572316","opening_hours":null,"provenance":{"/categories/0":"osm/node/4291572316","lat":"osm/node/4291572316","lon":"osm/node/4291572316","name":"osm/node/4291572316"},"sources":[{"source_id":"osm","source_record_id":"node/4291572316","source_url":null}],"tags":{},"website":null},"osm/node/4408060420":{"address":null,"categories":["playground"],"images":[],"last_updated":"2026-06-22","lat":52.31063,"lon":6.74863,"name":"node/4408060420","opening_hours":null,"provenance":{"/categories/0":"osm/node/4408060420","lat":"osm/node/4408060420","lon":"osm/node/4408060420","name":"osm/node/4408060420"},"sources":[{"source_id":"osm","source_record_id":"node/4408060420","source_url":null}],"tags":{},"website":null},"osm/node/4503141068":{"address":null,"categories":["playground"],"images":[],"last_updated":"2026-06-22","lat":52.19142,"lon":5.61154,"name":"node/4503141068","opening_hours":null,"provenance":{"/categories/0":"osm/node/4503141068","lat":"osm/node/4503141068","lon":"osm/node/4503141068","name":"osm/node/4503141068"},"sources":[{"source_id":"osm","source_record_id":"node/4503141068","source_url":null},{"source_id":"osm","source_record_id":"node/4503141069","source_url":null}],"tags":{},"website":null},"osm/node/4720725685":{"address":null,"categories":["playground"],"images":[],"last_updated":"2026-06-22","lat":51.84473,"lon":5.84735,"name":"node/4720725685","opening_hours":null,"provenance":{"/categories/0":"osm/node/4720725685","lat":"osm/node/4720725685","lon":"osm/node/4720725685","name":"osm/node/4720725685"},"sources":[{"source_id":"osm","source_record_id":"node/4720725685","source_url":null}],"tags":{},"website":null},"osm/node/5207172965":{"address":null,"categories":["playground"],"images":[],"last_updated":"2026-06-22","lat":52.2536,"lon":7.00881,"name":"node/5207172965","opening_hours":null,"provenance":{"/categories/0":"osm/node/5207172965","lat":"osm/node/5207172965","lon":"osm/node/5207172965","name":"osm/node/5207172965"},"sources":[{"source_id":"osm","source_record_id":"node/5207172965","source_url":null}],"tags":{},"website":null},"osm/node/5232759058":{"address":null,"categories":["playground"],"images":[],"last_updated":"2026-06-22","lat":52.02346,"lon":5.56614,"name":"node/5232759058","opening_hours":null,"provenance":{"/categories/0":"osm/node/5232759058","lat":"osm/node/5232759058","lon":"osm/node/5232759058","name":"osm/node/5232759058"},"sources":[{"source_id":"osm","source_record_id":"node/5232759058","source_url":null}],"tags":{},"website":null},"osm/node/5320786531":{"address":null,"categories":["playground"],"images":[],"last_updated":"2026-06-22","lat":52.25488,"lon":7.0128,"name":"node/5320786531","opening_hours":null,"provenance":{"/categories/0":"osm/node/5320786531","lat":"osm/node/5320786531","lon":"osm/node/5320786531","name":"osm/node/5320786531"},"sources":[{"source_id":"osm","source_record_id":"node/5320786531","source_url":null}],"tags":{},"website":null},"osm/node/5525541597":{"address":null,"categories":["playground"],"images":[],"last_updated":"2026-06-22","lat":52.29132,"lon":6.8365,"name":"node/5525541597","opening_hours":null,"provenance":{"/categories/0":"osm/node/5525541597","lat":"osm/node/5525541597","lon":"osm/node/5525541597","name":"osm/node/5525541597"},"sources":[{"source_id":"osm","source_record_id":"node/5525541597","source_url":null}],"tags":{},"website":null},"osm/node/5891084249":{"address":null,"categories":["playground"],"images":[],"last_updated":"2026-06-22","lat":52.3053,"lon":4.86939,"name":"node/5891084249","opening_hours":null,"provenance":{"/categories/0":"osm/node/5891084249","lat":"osm/node/5891084249","lon":"osm/node/5891084249","name":"osm/node/5891084249"},"sources":[{"source_id":"osm","source_record_id":"node/5891084249","source_url":null}],"tags":{},"website":null},"osm/node/6415875828":{"address":null,"categories":["playground"],"images":[],"last_updated":"2026-06-22","lat":52.59455,"lon":6.4536,"name":"node/6415875828","opening_hours":null,"provenance":{"/categories/0":"osm/node/6415875828","lat":"osm/node/6415875828","lon":"osm/node/6415875828","name":"osm/node/6415875828"},"sources":[{"source_id":"osm","source_record_id":"node/6415875828","source_url":null}],"tags":{},"website":null},"osm/node/6708433180":{"address":null,"categories":["playground"],"images":[],"last_updated":"2026-06-22","lat":53.40576,"lon":5.38597,"name":"node/6708433180","opening_hours":null,"provenance":{"/categories/0":"osm/node/6708433180","lat":"osm/node/6708433180","lon":"osm/node/6708433180","name":"osm/node/6708433180"},"sources":[{"source_id":"osm","source_record_id":"node/6708433180","source_url":null}],"tags":{},"website":null},"osm/node/6988557451":{"address":null,"categories":["playground"],"images":[],"last_updated":"2026-06-22","lat":51.56803,"lon":4.20463,"name":"node/6988557451","opening_hours":null,"provenance":{"/categories/0":"osm/node/6988557451","lat":"osm/node/6988557451","lon":"osm/node/6988557451","name":"osm/node/6988557451"},"sources":[{"source_id":"osm","source_record_id":"node/6988557451","source_url":null}],"tags":{},"website":null},"osm/node/7006657661":{"address":null,"categories":["playground"],"images":[],"last_updated":"2026-06-22","lat":51.51594,"lon":3.51497,"name":"node/7006657661","opening_hours":null,"provenance":{"/categories/0":"osm/node/7006657661","lat":"osm/node/7006657661","lon":"osm/node/7006657661","name":"osm/node/7006657661"},"sources":[{"source_id":"osm","source_record_id":"node/7006657661","source_url":null}],"tags":{},"website":null},"osm/node/7009079033":{"address":null,"categories":["playground"],"images":[],"last_updated":"2026-06-22","lat":51.51623,"lon":4.4544,"name":"node/7009079033","opening_hours":null,"provenance":{"/categories/0":"osm/node/7009079033","lat":"osm/node/7009079033","lon":"osm/node/7009079033","name":"osm/node/7009079033"},"sources":[{"source_id":"osm","source_record_id":"node/7009079033","source_url":null}],"tags":{},"website":null},"osm/node/7420911240":{"address":null,"categories":["playground"],"images":[],"last_updated":"2026-06-22","lat":52.66559,"lon":5.05096,"name":"node/7420911240","opening_hours":null,"provenance":{"/categories/0":"osm/node/7420911240","lat":"osm/node/7420911240","lon":"osm/node/7420911240","name":"osm/node/7420911240"},"sources":[{"source_id":"osm","source_record_id":"node/7420911240","source_url":null}],"tags":{},"website":null},"osm/node/7668035490":{"address":null,"categories":["playground"],"images":[],"last_updated":"2026-06-22","lat":52.63859,"lon":5.02502,"name":"node/7668035490","opening_hours":null,"provenance":{"/categories/0":"osm/node/7668035490","lat":"osm/node/7668035490","lon":"osm/node/7668035490","name":"osm/node/7668035490"},"sources":[{"source_id":"osm","source_record_id":"node/7668035490","source_url":null}],"tags":{},"website":null},"osm/node/7731860053":{"address":null,"categories":["playground"],"images":[],"last_updated":"2026-06-22","lat":52.46369,"lon":5.89017,"name":"node/7731860053","opening_hours":null,"provenance":{"/categories/0":"osm/node/7731860053","lat":"osm/node/7731860053","lon":"osm/node/7731860053","name":"osm/node/7731860053"},"sources":[{"source_id":"osm","source_record_id":"node/7731860053","source_url":null}],"tags":{},"website":null},"osm/node/8150783060":{"address":null,"categories":["playground"],"images":[],"last_updated":"2026-06-22","lat":51.98643,"lon":5.64586,"name":"node/8150783060","opening_hours":null,"provenance":{"/categories/0":"osm/node/8150783060","lat":"osm/node/8150783060","lon":"osm/node/8150783060","name":"osm/node/8150783060"},"sources":[{"source_id":"osm","source_record_id":"node/8150783060","source_url":null}],"tags":{},"website":null},"osm/node/9223589929":{"address":null,"categories":["playground"],"images":[],"last_updated":"2026-06-22","lat":53.14304,"lon":5.60655,"name":"node/9223589929","opening_hours":null,"provenance":{"/categories/0":"osm/node/9223589929","lat":"osm/node/9223589929","lon":"osm/node/9223589929","name":"osm/node/9223589929"},"sources":[{"source_id":"osm","source_record_id":"node/9223589929","source_url":null}],"tags":{},"website":null},"osm/node/9237294316":{"address":null,"categories":["playground"],"images":[],"last_updated":"2026-06-22","lat":51.93298,"lon":4.47707,"name":"node/9237294316","opening_hours":null,"provenance":{"/categories/0":"osm/node/9237294316","lat":"osm/node/9237294316","lon":"osm/node/9237294316","name":"osm/node/9237294316"},"sources":[{"source_id":"osm","source_record_id":"node/9237294316","source_url":null}],"tags":{},"website":null},"osm/node/9431935998":{"address":null,"categories":["playground"],"images":[],"last_updated":"2026-06-22","lat":51.9853,"lon":5.06898,"name":"node/9431935998","opening_hours":null,"provenance":{"/categories/0":"osm/node/9431935998","lat":"osm/node/9431935998","lon":"osm/node/9431935998","name":"osm/node/9431935998"},"sources":[{"source_id":"osm","source_record_id":"node/9431935998","source_url":null}],"tags":{},"website":null},"osm/node/9567039328":{"address":null,"categories":["playground"],"images":[],"last_updated":"2026-06-22","lat":52.89354,"lon":6.49558,"name":"node/9567039328","opening_hours":null,"provenance":{"/categories/0":"osm/node/9567039328","lat":"osm/node/9567039328","lon":"osm/node/9567039328","name":"osm/node/9567039328"},"sources":[{"source_id":"osm","source_record_id":"node/9567039328","source_url":null}],"tags":{},"website":null},"osm/node/9581818303":{"address":null,"categories":["playground"],"images":[],"last_updated":"2026-06-22","lat":52.06385,"lon":5.13422,"name":"node/9581818303","opening_hours":null,"provenance":{"/categories/0":"osm/node/9581818303","lat":"osm/node/9581818303","lon":"osm/node/9581818303","name":"osm/node/9581818303"},"sources":[{"source_id":"osm","source_record_id":"node/9581818303","source_url":null}],"tags":{},"website":null},"osm/node/9723860418":{"address":null,"categories":["playground"],"images":[],"last_updated":"2026-06-22","lat":51.38568,"lon":6.19044,"name":"node/9723860418","opening_hours":null,"provenance":{"/categories/0":"osm/node/9723860418","lat":"osm/node/9723860418","lon":"osm/node/9723860418","name":"osm/node/9723860418"},"sources":[{"source_id":"osm","source_record_id":"node/9723860418","source_url":null}],"tags":{},"website":null},"osm/way/1001324587":{"address":null,"categories":["playground"],"images":[],"last_updated":"2026-06-22","lat":51.98776,"lon":4.65917,"name":"way/1001324587","opening_hours":null,"provenance":{"/categories/0":"osm/way/1001324587","lat":"osm/way/1001324587","lon":"osm/way/1001324587","name":"osm/way/1001324587"},"sources":[{"source_id":"osm","source_record_id":"way/1001324587","source_url":null}],"tags":{},"website":null},"osm/way/1004783499":{"address":null,"categories":["playground"],"images":[],"last_updated":"2026-06-22","lat":53.00401,"lon":6.51506,"name":"way/1004783499","opening_hours":null,"provenance":{"/categories/0":"osm/way/1004783499","lat":"osm/way/1004783499","lon":"osm/way/1004783499","name":"osm/way/1004783499"},"sources":[{"source_id":"osm","source_record_id":"way/1004783499","source_url":null}],"tags":{},"website":null},"osm/way/1005585005":{"address":null,"categories":["playground"],"images":[],"last_updated":"2026-06-22","lat":52.35036,"lon":4.94648,"name":"way/1005585005","opening_hours":null,"provenance":{"/categories/0":"osm/way/1005585005","lat":"osm/way/1005585005","lon":"osm/way/1005585005","name":"osm/way/1005585005"},"sources":[{"source_id":"osm","source_record_id":"way/1005585005","source_url":null}],"tags":{},"website":null},"osm/way/1011254830":{"address":null,"categories":["playground"],"images":[],"last_updated":"2026-06-22","lat":52.80462,"lon":6.89335,"name":"way/1011254830","opening_hours":null,"provenance":{"/categories/0":"osm/way/1011254830","lat":"osm/way/1011254830","lon":"osm/way/1011254830","name":"osm/way/1011254830"},"sources":[{"source_id":"osm","source_record_id":"way/1011254830","source_url":null}],"tags":{},"website":null},"osm/way/1017475727":{"address":null,"categories":["pool"],"images":[],"last_updated":"2026-06-22","lat":52.24094,"lon":5.15441,"name":"way/1017475727","opening_hours":null,"provenance":{"/categories/0":"osm/way/1017475727","lat":"osm/way/1017475727","lon":"osm/way/1017475727","name":"osm/way/1017475727"},"sources":[{"source_id":"osm","source_record_id":"way/1017475727","source_url":null}],"tags":{},"website":null},"osm/way/1018879290":{"address":null,"categories":["playground"],"images":[],"last_updated":"2026-06-22","lat":52.09354,"lon":4.40637,"name":"way/1018879290","opening_hours":null,"provenance":{"/categories/0":"osm/way/1018879290","lat":"osm/way/1018879290","lon":"osm/way/1018879290","name":"osm/way/1018879290"},"sources":[{"source_id":"osm","source_record_id":"way/1018879290","source_url":null}],"tags":{},"website":null},"osm/way/1019540533":{"address":null,"categories":["playground"],"images":[],"last_updated":"2026-06-22","lat":52.23541,"lon":6.10074,"name":"way/1019540533","opening_hours":null,"provenance":{"/categories/0":"osm/way/1019540533","lat":"osm/way/1019540533","lon":"osm/way/1019540533","name":"osm/way/1019540533"},"sources":[{"source_id":"osm","source_record_id":"way/1019540533","source_url":null}],"tags":{},"website":null},"osm/way/1054418389":{"address":null,"categories":["playground"],"images":[],"last_updated":"2026-06-22","lat":52.25817,"lon":6.14783,"name":"way/1054418389","opening_hours":null,"provenance":{"/categories/0":"osm/way/1054418389","lat":"osm/way/1054418389","lon":"osm/way/1054418389","name":"osm/way/1054418389"},"sources":[{"source_id":"osm","source_record_id":"way/1054418389","source_url":null}],"tags":{},"website":null},"osm/way/1058098826":{"address":null,"categories":["playground"],"images":[],"last_updated":"2026-06-22","lat":51.49084,"lon":5.66482,"name":"way/1058098826","opening_hours":null,"provenance":{"/categories/0":"osm/way/1058098826","lat":"osm/way/1058098826","lon":"osm/way/1058098826","name":"osm/way/1058098826"},"sources":[{"source_id":"osm","source_record_id":"way/1058098826","source_url":null}],"tags":{},"website":null},"osm/way/1063264399":{"address":null,"categories":["playground"],"images":[],"last_updated":"2026-06-22","lat":52.4963,"lon":4.92589,"name":"way/1063264399","opening_hours":null,"provenance":{"/categories/0":"osm/way/1063264399","lat":"osm/way/1063264399","lon":"osm/way/1063264399","name":"osm/way/1063264399"},"sources":[{"source_id":"osm","source_record_id":"way/1063264399","source_url":null}],"tags":{},"website":null},"osm/way/1068278502":{"address":null,"categories":["playground"],"images":[],"last_updated":"2026-06-22","lat":51.61159,"lon":4.88968,"name":"Speelbos","opening_hours":null,"provenance":{"/categories/0":"osm/way/1068278502","lat":"osm/way/1068278502","lon":"osm/way/1068278502","name":"osm/way/1068278502"},"sources":[{"source_id":"osm","source_record_id":"way/1068278502","source_url":null}],"tags":{},"website":null},"osm/way/107000159":{"address":null,"categories":["playground"],"images":[],"last_updated":"2026-06-22","lat":52.49267,"lon":4.81041,"name":"way/107000159","opening_hours":null,"provenance":{"/categories/0":"osm/way/107000159","lat":"osm/way/107000159","lon":"osm/way/107000159","name":"osm/way/107000159"},"sources":[{"source_id":"osm","source_record_id":"way/107000159","source_url":null}],"tags":{},"website":null},"osm/way/1075892722":{"address":null,"categories":["playground"],"images":[],"last_updated":"2026-06-22","lat":53.27482,"lon":6.53107,"name":"way/1075892722","opening_hours":null,"provenance":{"/categories/0":"osm/way/1075892722","lat":"osm/way/1075892722","lon":"osm/way/1075892722","name":"osm/way/1075892722"},"sources":[{"source_id":"osm","source_record_id":"way/1075892722","source_url":null}],"tags":{},"website":null},"osm/way/1078279731":{"address":null,"categories":["pool"],"images":[],"last_updated":"2026-06-22","lat":52.08208,"lon":5.15833,"name":"way/1078279731","opening_hours":null,"provenance":{"/categories/0":"osm/way/1078279731","lat":"osm/way/1078279731","lon":"osm/way/1078279731","name":"osm/way/1078279731"},"sources":[{"source_id":"osm","source_record_id":"way/1078279731","source_url":null}],"tags":{},"website":null},"osm/way/1083588972":{"address":null,"categories":["playground"],"images":[],"last_updated":"2026-06-22","lat":51.63688,"lon":4.94067,"name":"way/1083588972","opening_hours":null,"provenance":{"/categories/0":"osm/way/1083588972","lat":"osm/way/1083588972","lon":"osm/way/1083588972","name":"osm/way/1083588972"},"sources":[{"source_id":"osm","source_record_id":"way/1083588972","source_url":null}],"tags":{},"website":null},"osm/way/1084430331":{"address":null,"categories":["pool"],"images":[],"last_updated":"2026-06-22","lat":51.91541,"lon":5.39979,"name":"way/1084430331","opening_hours":null,"provenance":{"/categories/0":"osm/way/1084430331","lat":"osm/way/1084430331","lon":"osm/way/1084430331","name":"osm/way/1084430331"},"sources":[{"source_id":"osm","source_record_id":"way/1084430331","source_url":null}],"tags":{},"website":null},"osm/way/108570118":{"address":null,"categories":["playground"],"images":[],"last_updated":"2026-06-22","lat":52.88085,"lon":6.64037,"name":"way/108570118","opening_hours":null,"provenance":{"/categories/0":"osm/way/108570118","lat":"osm/way/108570118","lon":"osm/way/108570118","name":"osm/way/108570118"},"sources":[{"source_id":"osm","source_record_id":"way/108570118","source_url":null}],"tags":{},"website":null},"osm/way/1085777453":{"address":null,"categories":["playground"],"images":[],"last_updated":"2026-06-22","lat":51.97423,"lon":5.32334,"name":"way/1085777453","opening_hours":null,"provenance":{"/categories/0":"osm/way/1085777453","lat":"osm/way/1085777453","lon":"osm/way/1085777453","name":"osm/way/1085777453"},"sources":[{"source_id":"osm","source_record_id":"way/1085777453","source_url":null}],"tags":{},"website":null},"osm/way/1094336759":{"address":null,"categories":["playground"],"images":[],"last_updated":"2026-06-22","lat":51.74468,"lon":4.10442,"name":"way/1094336759","opening_hours":null,"provenance":{"/categories/0":"osm/way/1094336759","lat":"osm/way/1094336759","lon":"osm/way/1094336759","name":"osm/way/1094336759"},"sources":[{"source_id":"osm","source_record_id":"way/1094336759","source_url":null}],"tags":{},"website":null},"osm/way/1124088612":{"address":null,"categories":["playground"],"images":[],"last_updated":"2026-06-22","lat":52.35744,"lon":6.99867,"name":"way/1124088612","opening_hours":null,"provenance":{"/categories/0":"osm/way/1124088612","lat":"osm/way/1124088612","lon":"osm/way/1124088612","name":"osm/way/1124088612"},"sources":[{"source_id":"osm","source_record_id":"way/1124088612","source_url":null}],"tags":{},"website":null},"osm/way/1126957462":{"address":null,"categories":["playground"],"images":[],"last_updated":"2026-06-22","lat":52.7316,"lon":6.99018,"name":"way/1126957462","opening_hours":null,"provenance":{"/categories/0":"osm/way/1126957462","lat":"osm/way/1126957462","lon":"osm/way/1126957462","name":"osm/way/1126957462"},"sources":[{"source_id":"osm","source_record_id":"way/1126957462","source_url":null}],"tags":{},"website":null},"osm/way/1134371461":{"address":null,"categories":["pool"],"images":[],"last_updated":"2026-06-22","lat":52.20791,"lon":5.19907,"name":"way/1134371461","opening_hours":null,"provenance":{"/categories/0":"osm/way/1134371461","lat":"osm/way/1134371461","lon":"osm/way/1134371461","name":"osm/way/1134371461"},"sources":[{"source_id":"osm","source_record_id":"way/1134371461","source_url":null}],"tags":{},"website":null},"osm/way/1139080166":{"address":null,"categories":["playground"],"images":[],"last_updated":"2026-06-22","lat":52.02673,"lon":5.15994,"name":"way/1139080166","opening_hours":null,"provenance":{"/categories/0":"osm/way/1139080166","lat":"osm/way/1139080166","lon":"osm/way/1139080166","name":"osm/way/1139080166"},"sources":[{"source_id":"osm","source_record_id":"way/1139080166","source_url":null}],"tags":{},"website":null},"osm/way/1156967884":{"address":null,"categories":["playground"],"images":[],"last_updated":"2026-06-22","lat":52.33403,"lon":5.59837,"name":"way/1156967884","opening_hours":null,"provenance":{"/categories/0":"osm/way/1156967884","lat":"osm/way/1156967884","lon":"osm/way/1156967884","name":"osm/way/1156967884"},"sources":[{"source_id":"osm","source_record_id":"way/1156967884","source_url":null}],"tags":{},"website":null},"osm/way/115836599":{"address":null,"categories":["playground"],"images":[],"last_updated":"2026-06-22","lat":52.11833,"lon":4.49937,"name":"way/115836599","opening_hours":null,"provenance":{"/categories/0":"osm/way/115836599","lat":"osm/way/115836599","lon":"osm/way/115836599","name":"osm/way/115836599"},"sources":[{"source_id":"osm","source_record_id":"way/115836599","source_url":null}],"tags":{},"website":null},"osm/way/1159221848":{"address":null,"categories":["playground"],"images":[],"last_updated":"2026-06-22","lat":52.5311,"lon":6.1045,"name":"way/1159221848","opening_hours":null,"provenance":{"/categories/0":"osm/way/1159221848","lat":"osm/way/1159221848","lon":"osm/way/1159221848","name":"osm/way/1159221848"},"sources":[{"source_id":"osm","source_record_id":"way/1159221848","source_url":null}],"tags":{},"website":null},"osm/way/115929404":{"address":null,"categories":["playground"],"images":[],"last_updated":"2026-06-22","lat":52.0645,"lon":5.0975,"name":"way/115929404","opening_hours":null,"provenance":{"/categories/0":"osm/way/115929404","lat":"osm/way/115929404","lon":"osm/way/115929404","name":"osm/way/115929404"},"sources":[{"source_id":"osm","source_record_id":"way/115929404","source_url":null}],"tags":{},"website":null},"osm/way/1163113539":{"address":null,"categories":["playground"],"images":[],"last_updated":"2026-06-22","lat":53.31476,"lon":6.00325,"name":"way/1163113539","opening_hours":null,"provenance":{"/categories/0":"osm/way/1163113539","lat":"osm/way/1163113539","lon":"osm/way/1163113539","name":"osm/way/1163113539"},"sources":[{"source_id":"osm","source_record_id":"way/1163113539","source_url":null}],"tags":{},"website":null},"osm/way/1163410948":{"address":null,"categories":["playground"],"images":[],"last_updated":"2026-06-22","lat":53.25384,"lon":6.60368,"name":"way/1163410948","opening_hours":null,"provenance":{"/categories/0":"osm/way/1163410948","lat":"osm/way/1163410948","lon":"osm/way/1163410948","name":"osm/way/1163410948"},"sources":[{"source_id":"osm","source_record_id":"way/1163410948","source_url":null}],"tags":{},"website":null},"osm/way/1163468264":{"address":null,"categories":["playground"],"images":[],"last_updated":"2026-06-22","lat":52.72004,"lon":5.73182,"name":"way/1163468264","opening_hours":null,"provenance":{"/categories/0":"osm/way/1163468264","lat":"osm/way/1163468264","lon":"osm/way/1163468264","name":"osm/way/1163468264"},"sources":[{"source_id":"osm","source_record_id":"way/1163468264","source_url":null}],"tags":{},"website":null},"osm/way/1163870119":{"address":null,"categories":["playground"],"images":[],"last_updated":"2026-06-22","lat":51.76019,"lon":5.50883,"name":"way/1163870119","opening_hours":null,"provenance":{"/categories/0":"osm/way/1163870119","lat":"osm/way/1163870119","lon":"osm/way/1163870119","name":"osm/way/1163870119"},"sources":[{"source_id":"osm","source_record_id":"way/1163870119","source_url":null}],"tags":{},"website":null},"osm/way/1167842295":{"address":null,"categories":["playground"],"images":[],"last_updated":"2026-06-22","lat":52.50356,"lon":5.45827,"name":"way/1167842295","opening_hours":null,"provenance":{"/categories/0":"osm/way/1167842295","lat":"osm/way/1167842295","lon":"osm/way/1167842295","name":"osm/way/1167842295"},"sources":[{"source_id":"osm","source_record_id":"way/1167842295","source_url":null}],"tags":{},"website":null},"osm/way/1168485808":{"address":null,"categories":["playground"],"images":[],"last_updated":"2026-06-22","lat":52.3245,"lon":6.92283,"name":"way/1168485808","opening_hours":null,"provenance":{"/categories/0":"osm/way/1168485808","lat":"osm/way/1168485808","lon":"osm/way/1168485808","name":"osm/way/1168485808"},"sources":[{"source_id":"osm","source_record_id":"way/1168485808","source_url":null}],"tags":{},"website":null},"osm/way/1175765997":{"address":null,"categories":["playground"],"images":[],"last_updated":"2026-06-22","lat":52.21525,"lon":5.27765,"name":"way/1175765997","opening_hours":null,"provenance":{"/categories/0":"osm/way/1175765997","lat":"osm/way/1175765997","lon":"osm/way/1175765997","name":"osm/way/1175765997"},"sources":[{"source_id":"osm","source_record_id":"way/1175765997","source_url":null}],"tags":{},"website":null},"osm/way/1179606403":{"address":null,"categories":["playground"],"images":[],"last_updated":"2026-06-22","lat":51.91505,"lon":4.39953,"name":"way/1179606403","opening_hours":null,"provenance":{"/categories/0":"osm/way/1179606403","lat":"osm/way/1179606403","lon":"osm/way/1179606403","name":"osm/way/1179606403"},"sources":[{"source_id":"osm","source_record_id":"way/1179606403","source_url":null}],"tags":{},"website":null},"osm/way/1179817481":{"address":null,"categories":["playground"],"images":[],"last_updated":"2026-06-22","lat":51.99219,"lon":4.46299,"name":"way/1179817481","opening_hours":null,"provenance":{"/categories/0":"osm/way/1179817481","lat":"osm/way/1179817481","lon":"osm/way/1179817481","name":"osm/way/1179817481"},"sources":[{"source_id":"osm","source_record_id":"way/1179817481","source_url":null}],"tags":{},"website":null},"osm/way/1180514173":{"address":null,"categories":["pool"],"images":[],"last_updated":"2026-06-22","lat":52.12148,"lon":4.36176,"name":"way/1180514173","opening_hours":null,"provenance":{"/categories/0":"osm/way/1180514173","lat":"osm/way/1180514173","lon":"osm/way/1180514173","name":"osm/way/1180514173"},"sources":[{"source_id":"osm","source_record_id":"way/1180514173","source_url":null}],"tags":{},"website":null},"osm/way/1182321353":{"address":null,"categories":["playground"],"images":[],"last_updated":"2026-06-22","lat":52.35436,"lon":4.80518,"name":"way/1182321353","opening_hours":null,"provenance":{"/categories/0":"osm/way/1182321353","lat":"osm/way/1182321353","lon":"osm/way/1182321353","name":"osm/way/1182321353"},"sources":[{"source_id":"osm","source_record_id":"way/1182321353","source_url":null}],"tags":{},"website":null},"osm/way/1182633698":{"address":null,"categories":["playground"],"images":[],"last_updated":"2026-06-22","lat":52.05779,"lon":4.34465,"name":"way/1182633698","opening_hours":null,"provenance":{"/categories/0":"osm/way/1182633698","lat":"osm/way/1182633698","lon":"osm/way/1182633698","name":"osm/way/1182633698"},"sources":[{"source_id":"osm","source_record_id":"way/1182633698","source_url":null}],"tags":{},"website":null},"osm/way/1184546756":{"address":null,"categories":["playground"],"images":[],"last_updated":"2026-06-22","lat":52.30763,"lon":4.65808,"name":"way/1184546756","opening_hours":null,"provenance":{"/categories/0":"osm/way/1184546756","lat":"osm/way/1184546756","lon":"osm/way/1184546756","name":"osm/way/1184546756"},"sources":[{"source_id":"osm","source_record_id":"way/1184546756","source_url":null}],"tags":{},"website":null},"osm/way/1186484889":{"address":null,"categories":["playground"],"images":[],"last_updated":"2026-06-22","lat":52.12012,"lon":5.11634,"name":"way/1186484889","opening_hours":null,"provenance":{"/categories/0":"osm/way/1186484889","lat":"osm/way/1186484889","lon":"osm/way/1186484889","name":"osm/way/1186484889"},"sources":[{"source_id":"osm","source_record_id":"way/1186484889","source_url":null}],"tags":{},"website":null},"osm/way/1189140133":{"address":null,"categories":["playground"],"images":[],"last_updated":"2026-06-22","lat":51.87776,"lon":5.59094,"name":"way/1189140133","opening_hours":null,"provenance":{"/categories/0":"osm/way/1189140133","lat":"osm/way/1189140133","lon":"osm/way/1189140133","name":"osm/way/1189140133"},"sources":[{"source_id":"osm","source_record_id":"way/1189140133","source_url":null}],"tags":{},"website":null},"osm/way/1189142010":{"address":null,"categories":["pool"],"images":[],"last_updated":"2026-06-22","lat":51.80395,"lon":4.43138,"name":"way/1189142010","opening_hours":null,"provenance":{"/categories/0":"osm/way/1189142010","lat":"osm/way/1189142010","lon":"osm/way/1189142010","name":"osm/way/1189142010"},"sources":[{"source_id":"osm","source_record_id":"way/1189142010","source_url":null}],"tags":{},"website":null},"osm/way/1190021450":{"address":null,"categories":["pool"],"images":[],"last_updated":"2026-06-22","lat":51.65847,"lon":5.28621,"name":"way/1190021450","opening_hours":null,"provenance":{"/categories/0":"osm/way/1190021450","lat":"osm/way/1190021450","lon":"osm/way/1190021450","name":"osm/way/1190021450"},"sources":[{"source_id":"osm","source_record_id":"way/1190021450","source_url":null}],"tags":{},"website":null},"osm/way/1213806017":{"address":null,"categories":["playground"],"images":[],"last_updated":"2026-06-22","lat":51.99184,"lon":5.10121,"name":"way/1213806017","opening_hours":null,"provenance":{"/categories/0":"osm/way/1213806017","lat":"osm/way/1213806017","lon":"osm/way/1213806017","name":"osm/way/1213806017"},"sources":[{"source_id":"osm","source_record_id":"way/1213806017","source_url":null}],"tags":{},"website":null},"osm/way/1214513181":{"address":null,"categories":["playground"],"images":[],"last_updated":"2026-06-22","lat":51.51498,"lon":5.38632,"name":"way/1214513181","opening_hours":null,"provenance":{"/categories/0":"osm/way/1214513181","lat":"osm/way/1214513181","lon":"osm/way/1214513181","name":"osm/way/1214513181"},"sources":[{"source_id":"osm","source_record_id":"way/1214513181","source_url":null}],"tags":{},"website":null},"osm/way/1225582400":{"address":null,"categories":["playground"],"images":[],"last_updated":"2026-06-22","lat":52.04774,"lon":4.28376,"name":"way/1225582400","opening_hours":null,"provenance":{"/categories/0":"osm/way/1225582400","lat":"osm/way/1225582400","lon":"osm/way/1225582400","name":"osm/way/1225582400"},"sources":[{"source_id":"osm","source_record_id":"way/1225582400","source_url":null},{"source_id":"osm","source_record_id":"way/1225582401","source_url":null}],"tags":{},"website":null},"osm/way/1230618187":{"address":null,"categories":["playground"],"images":[],"last_updated":"2026-06-22","lat":52.07551,"lon":5.49591,"name":"way/1230618187","opening_hours":null,"provenance":{"/categories/0":"osm/way/1230618187","lat":"osm/way/1230618187","lon":"osm/way/1230618187","name":"osm/way/1230618187"},"sources":[{"source_id":"osm","source_record_id":"way/1230618187","source_url":null}],"tags":{},"website":null},"osm/way/1243167542":{"address":null,"categories":["playground"],"images":[],"last_updated":"2026-06-22","lat":52.297,"lon":4.59152,"name":"way/1243167542","opening_hours":null,"provenance":{"/categories/0":"osm/way/1243167542","lat":"osm/way/1243167542","lon":"osm/way/1243167542","name":"osm/way/1243167542"},"sources":[{"source_id":"osm","source_record_id":"way/1243167542","source_url":null}],"tags":{},"website":null},"osm/way/1244859363":{"address":null,"categories":["playground"],"images":[],"last_updated":"2026-06-22","lat":52.78532,"lon":6.89884,"name":"way/1244859363","opening_hours":null,"provenance":{"/categories/0":"osm/way/1244859363","lat":"osm/way/1244859363","lon":"osm/way/1244859363","name":"osm/way/1244859363"},"sources":[{"source_id":"osm","source_record_id":"way/1244859363","source_url":null}],"tags":{},"website":null},"osm/way/1253268495":{"address":null,"categories":["pool"],"images":[],"last_updated":"2026-06-22","lat":52.34671,"lon":4.61332,"name":"way/1253268495","opening_hours":null,"provenance":{"/categories/0":"osm/way/1253268495","lat":"osm/way/1253268495","lon":"osm/way/1253268495","name":"osm/way/1253268495"},"sources":[{"source_id":"osm","source_record_id":"way/1253268495","source_url":null},{"source_id":"osm","source_record_id":"way/1253268498","source_url":null}],"tags":{},"website":null},"osm/way/1265841424":{"address":null,"categories":["playground"],"images":[],"last_updated":"2026-06-22","lat":51.90699,"lon":4.32319,"name":"way/1265841424","opening_hours":null,"provenance":{"/categories/0":"osm/way/1265841424","lat":"osm/way/1265841424","lon":"osm/way/1265841424","name":"osm/way/1265841424"},"sources":[{"source_id":"osm","source_record_id":"way/1265841424","source_url":null}],"tags":{},"website":null},"osm/way/1274386778":{"address":null,"categories":["playground"],"images":[],"last_updated":"2026-06-22","lat":51.35403,"lon":5.30765,"name":"way/1274386778","opening_hours":null,"provenance":{"/categories/0":"osm/way/1274386778","lat":"osm/way/1274386778","lon":"osm/way/1274386778","name":"osm/way/1274386778"},"sources":[{"source_id":"osm","source_record_id":"way/1274386778","source_url":null}],"tags":{},"website":null},"osm/way/1279174260":{"address":null,"categories":["playground"],"images":[],"last_updated":"2026-06-22","lat":51.71195,"lon":4.69144,"name":"way/1279174260","opening_hours":null,"provenance":{"/categories/0":"osm/way/1279174260","lat":"osm/way/1279174260","lon":"osm/way/1279174260","name":"osm/way/1279174260"},"sources":[{"source_id":"osm","source_record_id":"way/1279174260","source_url":null}],"tags":{},"website":null},"osm/way/1294806399":{"address":null,"categories":["playground"],"images":[],"last_updated":"2026-06-22","lat":53.21785,"lon":5.84171,"name":"way/1294806399","opening_hours":null,"provenance":{"/categories/0":"osm/way/1294806399","lat":"osm/way/1294806399","lon":"osm/way/1294806399","name":"osm/way/1294806399"},"sources":[{"source_id":"osm","source_record_id":"way/1294806399","source_url":null}],"tags":{},"website":null},"osm/way/1311192812":{"address":null,"categories":["playground"],"images":[],"last_updated":"2026-06-22","lat":51.95127,"lon":6.64305,"name":"way/1311192812","opening_hours":null,"provenance":{"/categories/0":"osm/way/1311192812","lat":"osm/way/1311192812","lon":"osm/way/1311192812","name":"osm/way/1311192812"},"sources":[{"source_id":"osm","source_record_id":"way/1311192812","source_url":null}],"tags":{},"website":null},"osm/way/1315374270":{"address":null,"categories":["playground"],"images":[],"last_updated":"2026-06-22","lat":51.65498,"lon":5.02116,"name":"way/1315374270","opening_hours":null,"provenance":{"/categories/0":"osm/way/1315374270","lat":"osm/way/1315374270","lon":"osm/way/1315374270","name":"osm/way/1315374270"},"sources":[{"source_id":"osm","source_record_id":"way/1315374270","source_url":null}],"tags":{},"website":null},"osm/way/1318351595":{"address":null,"categories":["playground"],"images":[],"last_updated":"2026-06-22","lat":52.66365,"lon":5.60862,"name":"way/1318351595","opening_hours":null,"provenance":{"/categories/0":"osm/way/1318351595","lat":"osm/way/1318351595","lon":"osm/way/1318351595","name":"osm/way/1318351595"},"sources":[{"source_id":"osm","source_record_id":"way/1318351595","source_url":null}],"tags":{},"website":null},"osm/way/1319291119":{"address":null,"categories":["playground"],"images":[],"last_updated":"2026-06-22","lat":51.86036,"lon":4.52466,"name":"way/1319291119","opening_hours":null,"provenance":{"/categories/0":"osm/way/1319291119","lat":"osm/way/1319291119","lon":"osm/way/1319291119","name":"osm/way/1319291119"},"sources":[{"source_id":"osm","source_record_id":"way/1319291119","source_url":null}],"tags":{},"website":null},"osm/way/1320094158":{"address":null,"categories":["pool"],"images":[],"last_updated":"2026-06-22","lat":52.46976,"lon":4.77992,"name":"way/1320094158","opening_hours":null,"provenance":{"/categories/0":"osm/way/1320094158","lat":"osm/way/1320094158","lon":"osm/way/1320094158","name":"osm/way/1320094158"},"sources":[{"source_id":"osm","source_record_id":"way/1320094158","source_url":null}],"tags":{},"website":null},"osm/way/1323166595":{"address":null,"categories":["playground"],"images":[],"last_updated":"2026-06-22","lat":52.66373,"lon":4.85822,"name":"way/1323166595","opening_hours":null,"provenance":{"/categories/0":"osm/way/1323166595","lat":"osm/way/1323166595","lon":"osm/way/1323166595","name":"osm/way/1323166595"},"sources":[{"source_id":"osm","source_record_id":"way/1323166595","source_url":null}],"tags":{},"website":null},"osm/way/1329901125":{"address":null,"categories":["playground"],"images":[],"last_updated":"2026-06-22","lat":51.91553,"lon":4.09729,"name":"way/1329901125","opening_hours":null,"provenance":{"/categories/0":"osm/way/1329901125","lat":"osm/way/1329901125","lon":"osm/way/1329901125","name":"osm/way/1329901125"},"sources":[{"source_id":"osm","source_record_id":"way/1329901125","source_url":null}],"tags":{},"website":null},"osm/way/1332142982":{"address":null,"categories":["playground"],"images":[],"last_updated":"2026-06-22","lat":53.45727,"lon":5.76881,"name":"way/1332142982","opening_hours":null,"provenance":{"/categories/0":"osm/way/1332142982","lat":"osm/way/1332142982","lon":"osm/way/1332142982","name":"osm/way/1332142982"},"sources":[{"source_id":"osm","source_record_id":"way/1332142982","source_url":null}],"tags":{},"website":null},"osm/way/1334754347":{"address":null,"categories":["pool"],"images":[],"last_updated":"2026-06-22","lat":52.20845,"lon":5.00002,"name":"way/1334754347","opening_hours":null,"provenance":{"/categories/0":"osm/way/1334754347","lat":"osm/way/1334754347","lon":"osm/way/1334754347","name":"osm/way/1334754347"},"sources":[{"source_id":"osm","source_record_id":"way/1334754347","source_url":null}],"tags":{},"website":null},"osm/way/1340646074":{"address":null,"categories":["playground"],"images":[],"last_updated":"2026-06-22","lat":52.62589,"lon":4.65694,"name":"way/1340646074","opening_hours":null,"provenance":{"/categories/0":"osm/way/1340646074","lat":"osm/way/1340646074","lon":"osm/way/1340646074","name":"osm/way/1340646074"},"sources":[{"source_id":"osm","source_record_id":"way/1340646074","source_url":null},{"source_id":"osm","source_record_id":"way/1340646077","source_url":null}],"tags":{},"website":null},"osm/way/1343513182":{"address":null,"categories":["playground"],"images":[],"last_updated":"2026-06-22","lat":52.4626,"lon":5.03685,"name":"way/1343513182","opening_hours":null,"provenance":{"/categories/0":"osm/way/1343513182","lat":"osm/way/1343513182","lon":"osm/way/1343513182","name":"osm/way/1343513182"},"sources":[{"source_id":"osm","source_record_id":"way/1343513182","source_url":null}],"tags":{},"website":null},"osm/way/1361790611":{"address":null,"categories":["playground"],"images":[],"last_updated":"2026-06-22","lat":51.87144,"lon":4.52042,"name":"way/1361790611","opening_hours":null,"provenance":{"/categories/0":"osm/way/1361790611","lat":"osm/way/1361790611","lon":"osm/way/1361790611","name":"osm/way/1361790611"},"sources":[{"source_id":"osm","source_record_id":"way/1361790611","source_url":null}],"tags":{},"website":null},"osm/way/1372596167":{"address":null,"categories":["playground"],"images":[],"last_updated":"2026-06-22","lat":52.15921,"lon":5.38899,"name":"way/1372596167","opening_hours":null,"provenance":{"/categories/0":"osm/way/1372596167","lat":"osm/way/1372596167","lon":"osm/way/1372596167","name":"osm/way/1372596167"},"sources":[{"source_id":"osm","source_record_id":"way/1372596167","source_url":null}],"tags":{},"website":null},"osm/way/1373505537":{"address":null,"categories":["playground"],"images":[],"last_updated":"2026-06-22","lat":52.0155,"lon":6.02502,"name":"way/1373505537","opening_hours":null,"provenance":{"/categories/0":"osm/way/1373505537","lat":"osm/way/1373505537","lon":"osm/way/1373505537","name":"osm/way/1373505537"},"sources":[{"source_id":"osm","source_record_id":"way/1373505537","source_url":null}],"tags":{},"website":null},"osm/way/1377363771":{"address":null,"categories":["playground"],"images":[],"last_updated":"2026-06-22","lat":52.1387,"lon":5.49505,"name":"way/1377363771","opening_hours":null,"provenance":{"/categories/0":"osm/way/1377363771","lat":"osm/way/1377363771","lon":"osm/way/1377363771","name":"osm/way/1377363771"},"sources":[{"source_id":"osm","source_record_id":"way/1377363771","source_url":null}],"tags":{},"website":null},"osm/way/1387545088":{"address":null,"categories":["playground"],"images":[],"last_updated":"2026-06-22","lat":51.94555,"lon":4.37976,"name":"way/1387545088","opening_hours":null,"provenance":{"/categories/0":"osm/way/1387545088","lat":"osm/way/1387545088","lon":"osm/way/1387545088","name":"osm/way/1387545088"},"sources":[{"source_id":"osm","source_record_id":"way/1387545088","source_url":null}],"tags":{},"website":null},"osm/way/1387839259":{"address":null,"categories":["playground"],"images":[],"last_updated":"2026-06-22","lat":51.93616,"lon":4.37211,"name":"way/1387839259","opening_hours":null,"provenance":{"/categories/0":"osm/way/1387839259","lat":"osm/way/1387839259","lon":"osm/way/1387839259","name":"osm/way/1387839259"},"sources":[{"source_id":"osm","source_record_id":"way/1387839259","source_url":null}],"tags":{},"website":null},"osm/way/143763377":{"address":null,"categories":["pool"],"images":[],"last_updated":"2026-06-22","lat":51.83289,"lon":3.99221,"name":"way/143763377","opening_hours":null,"provenance":{"/categories/0":"osm/way/143763377","lat":"osm/way/143763377","lon":"osm/way/143763377","name":"osm/way/143763377"},"sources":[{"source_id":"osm","source_record_id":"way/143763377","source_url":null}],"tags":{},"website":null},"osm/way/1446621908":{"address":null,"categories":["playground"],"images":[],"last_updated":"2026-06-22","lat":51.88948,"lon":5.99773,"name":"way/1446621908","opening_hours":null,"provenance":{"/categories/0":"osm/way/1446621908","lat":"osm/way/1446621908","lon":"osm/way/1446621908","name":"osm/way/1446621908"},"sources":[{"source_id":"osm","source_record_id":"way/1446621908","source_url":null}],"tags":{},"website":null},"osm/way/1457114675":{"address":null,"categories":["playground"],"images":[],"last_updated":"2026-06-22","lat":51.97884,"lon":5.89823,"name":"way/1457114675","opening_hours":null,"provenance":{"/categories/0":"osm/way/1457114675","lat":"osm/way/1457114675","lon":"osm/way/1457114675","name":"osm/way/1457114675"},"sources":[{"source_id":"osm","source_record_id":"way/1457114675","source_url":null}],"tags":{},"website":null},"osm/way/1460027892":{"address":null,"categories":["playground"],"images":[],"last_updated":"2026-06-22","lat":50.85785,"lon":5.65686,"name":"way/1460027892","opening_hours":null,"provenance":{"/categories/0":"osm/way/1460027892","lat":"osm/way/1460027892","lon":"osm/way/1460027892","name":"osm/way/1460027892"},"sources":[{"source_id":"osm","source_record_id":"way/1460027892","source_url":null}],"tags":{},"website":null},"osm/way/1462621997":{"address":null,"categories":["playground"],"images":[],"last_updated":"2026-06-22","lat":52.37776,"lon":4.80832,"name":"way/1462621997","opening_hours":null,"provenance":{"/categories/0":"osm/way/1462621997","lat":"osm/way/1462621997","lon":"osm/way/1462621997","name":"osm/way/1462621997"},"sources":[{"source_id":"osm","source_record_id":"way/1462621997","source_url":null}],"tags":{},"website":null},"osm/way/1473478144":{"address":null,"categories":["playground"],"images":[],"last_updated":"2026-06-22","lat":52.36055,"lon":4.80191,"name":"way/1473478144","opening_hours":null,"provenance":{"/categories/0":"osm/way/1473478144","lat":"osm/way/1473478144","lon":"osm/way/1473478144","name":"osm/way/1473478144"},"sources":[{"source_id":"osm","source_record_id":"way/1473478144","source_url":null}],"tags":{},"website":null},"osm/way/1477764328":{"address":null,"categories":["playground"],"images":[],"last_updated":"2026-06-22","lat":51.35613,"lon":4.35366,"name":"way/1477764328","opening_hours":null,"provenance":{"/categories/0":"osm/way/1477764328","lat":"osm/way/1477764328","lon":"osm/way/1477764328","name":"osm/way/1477764328"},"sources":[{"source_id":"osm","source_record_id":"way/1477764328","source_url":null}],"tags":{},"website":null},"osm/way/1479884660":{"address":null,"categories":["playground"],"images":[],"last_updated":"2026-06-22","lat":52.4414,"lon":4.83592,"name":"way/1479884660","opening_hours":null,"provenance":{"/categories/0":"osm/way/1479884660","lat":"osm/way/1479884660","lon":"osm/way/1479884660","name":"osm/way/1479884660"},"sources":[{"source_id":"osm","source_record_id":"way/1479884660","source_url":null}],"tags":{},"website":null},"osm/way/1494645646":{"address":null,"categories":["playground"],"images":[],"last_updated":"2026-06-22","lat":51.82465,"lon":4.15176,"name":"way/1494645646","opening_hours":null,"provenance":{"/categories/0":"osm/way/1494645646","lat":"osm/way/1494645646","lon":"osm/way/1494645646","name":"osm/way/1494645646"},"sources":[{"source_id":"osm","source_record_id":"way/1494645646","source_url":null}],"tags":{},"website":null},"osm/way/1526188817":{"address":null,"categories":["pool"],"images":[],"last_updated":"2026-06-22","lat":51.08491,"lon":5.81862,"name":"way/1526188817","opening_hours":null,"provenance":{"/categories/0":"osm/way/1526188817","lat":"osm/way/1526188817","lon":"osm/way/1526188817","name":"osm/way/1526188817"},"sources":[{"source_id":"osm","source_record_id":"way/1526188817","source_url":null}],"tags":{},"website":null},"osm/way/1527928085":{"address":null,"categories":["playground"],"images":[],"last_updated":"2026-06-22","lat":51.80728,"lon":5.25614,"name":"way/1527928085","opening_hours":null,"provenance":{"/categories/0":"osm/way/1527928085","lat":"osm/way/1527928085","lon":"osm/way/1527928085","name":"osm/way/1527928085"},"sources":[{"source_id":"osm","source_record_id":"way/1527928085","source_url":null}],"tags":{},"website":null},"osm/way/1528790351":{"address":null,"categories":["pool"],"images":[],"last_updated":"2026-06-22","lat":51.83513,"lon":4.86588,"name":"way/1528790351","opening_hours":null,"provenance":{"/categories/0":"osm/way/1528790351","lat":"osm/way/1528790351","lon":"osm/way/1528790351","name":"osm/way/1528790351"},"sources":[{"source_id":"osm","source_record_id":"way/1528790351","source_url":null}],"tags":{},"website":null},"osm/way/169454998":{"address":null,"categories":["playground"],"images":[],"last_updated":"2026-06-22","lat":52.00517,"lon":4.35363,"name":"Speeltuin Westerhonk","opening_hours":null,"provenance":{"/categories/0":"osm/way/169454998","lat":"osm/way/169454998","lon":"osm/way/169454998","name":"osm/way/169454998"},"sources":[{"source_id":"osm","source_record_id":"way/169454998","source_url":null}],"tags":{},"website":null},"osm/way/180559311":{"address":null,"categories":["playground"],"images":[],"last_updated":"2026-06-22","lat":52.13964,"lon":5.4342,"name":"way/180559311","opening_hours":null,"provenance":{"/categories/0":"osm/way/180559311","lat":"osm/way/180559311","lon":"osm/way/180559311","name":"osm/way/180559311"},"sources":[{"source_id":"osm","source_record_id":"way/180559311","source_url":null}],"tags":{},"website":null},"osm/way/191732866":{"address":null,"categories":["playground"],"images":[],"last_updated":"2026-06-22","lat":52.95014,"lon":5.92886,"name":"Westindiëplein","opening_hours":null,"provenance":{"/categories/0":"osm/way/191732866","lat":"osm/way/191732866","lon":"osm/way/191732866","name":"osm/way/191732866"},"sources":[{"source_id":"osm","source_record_id":"way/191732866","source_url":null}],"tags":{},"website":null},"osm/way/239284032":{"address":null,"categories":["playground"],"images":[],"last_updated":"2026-06-22","lat":52.34419,"lon":4.85944,"name":"way/239284032","opening_hours":null,"provenance":{"/categories/0":"osm/way/239284032","lat":"osm/way/239284032","lon":"osm/way/239284032","name":"osm/way/239284032"},"sources":[{"source_id":"osm","source_record_id":"way/239284032","source_url":null}],"tags":{},"website":null},"osm/way/249307341":{"address":null,"categories":["playground"],"images":[],"last_updated":"2026-06-22","lat":52.36643,"lon":6.6654,"name":"way/249307341","opening_hours":null,"provenance":{"/categories/0":"osm/way/249307341","lat":"osm/way/249307341","lon":"osm/way/249307341","name":"osm/way/249307341"},"sources":[{"source_id":"osm","source_record_id":"way/249307341","source_url":null}],"tags":{},"website":null},"osm/way/25291059":{"address":null,"categories":["playground"],"images":[],"last_updated":"2026-06-22","lat":52.34938,"lon":4.85923,"name":"way/25291059","opening_hours":null,"provenance":{"/categories/0":"osm/way/25291059","lat":"osm/way/25291059","lon":"osm/way/25291059","name":"osm/way/25291059"},"sources":[{"source_id":"osm","source_record_id":"way/25291059","source_url":null}],"tags":{},"website":null},"osm/way/25413680":{"address":null,"categories":["playground"],"images":[],"last_updated":"2026-06-22","lat":52.03373,"lon":4.31776,"name":"way/25413680","opening_hours":null,"provenance":{"/categories/0":"osm/way/25413680","lat":"osm/way/25413680","lon":"osm/way/25413680","name":"osm/way/25413680"},"sources":[{"source_id":"osm","source_record_id":"way/25413680","source_url":null}],"tags":{},"website":null},"osm/way/258967428":{"address":null,"categories":["pool"],"images":[],"last_updated":"2026-06-22","lat":51.77208,"lon":4.96533,"name":"way/258967428","opening_hours":null,"provenance":{"/categories/0":"osm/way/258967428","lat":"osm/way/258967428","lon":"osm/way/258967428","name":"osm/way/258967428"},"sources":[{"source_id":"osm","source_record_id":"way/258967428","source_url":null}],"tags":{},"website":null},"osm/way/259931950":{"address":null,"categories":["playground"],"images":[],"last_updated":"2026-06-22","lat":53.04899,"lon":5.82577,"name":"way/259931950","opening_hours":null,"provenance":{"/categories/0":"osm/way/259931950","lat":"osm/way/259931950","lon":"osm/way/259931950","name":"osm/way/259931950"},"sources":[{"source_id":"osm","source_record_id":"way/259931950","source_url":null}],"tags":{},"website":null},"osm/way/262519176":{"address":null,"categories":["playground"],"images":[],"last_updated":"2026-06-22","lat":52.29695,"lon":6.77533,"name":"way/262519176","opening_hours":null,"provenance":{"/categories/0":"osm/way/262519176","lat":"osm/way/262519176","lon":"osm/way/262519176","name":"osm/way/262519176"},"sources":[{"source_id":"osm","source_record_id":"way/262519176","source_url":null}],"tags":{},"website":null},"osm/way/26394557":{"address":null,"categories":["playground"],"images":[],"last_updated":"2026-06-22","lat":51.66101,"lon":4.85745,"name":"De Windstreek","opening_hours":null,"provenance":{"/categories/0":"osm/way/26394557","lat":"osm/way/26394557","lon":"osm/way/26394557","name":"osm/way/26394557"},"sources":[{"source_id":"osm","source_record_id":"way/26394557","source_url":null}],"tags":{},"website":null},"osm/way/264110058":{"address":null,"categories":["playground"],"images":[],"last_updated":"2026-06-22","lat":51.42938,"lon":5.49384,"name":"way/264110058","opening_hours":null,"provenance":{"/categories/0":"osm/way/264110058","lat":"osm/way/264110058","lon":"osm/way/264110058","name":"osm/way/264110058"},"sources":[{"source_id":"osm","source_record_id":"way/264110058","source_url":null}],"tags":{},"website":null},"osm/way/27353306":{"address":null,"categories":["playground"],"images":[],"last_updated":"2026-06-22","lat":52.17721,"lon":4.50096,"name":"way/27353306","opening_hours":null,"provenance":{"/categories/0":"osm/way/27353306","lat":"osm/way/27353306","lon":"osm/way/27353306","name":"osm/way/27353306"},"sources":[{"source_id":"osm","source_record_id":"way/27353306","source_url":null}],"tags":{},"website":null},"osm/way/328170141":{"address":null,"categories":["playground"],"images":[],"last_updated":"2026-06-22","lat":52.52189,"lon":5.47848,"name":"way/328170141","opening_hours":null,"provenance":{"/categories/0":"osm/way/328170141","lat":"osm/way/328170141","lon":"osm/way/328170141","name":"osm/way/328170141"},"sources":[{"source_id":"osm","source_record_id":"way/328170141","source_url":null}],"tags":{},"website":null},"osm/way/339693442":{"address":null,"categories":["playground"],"images":[],"last_updated":"2026-06-22","lat":52.19626,"lon":5.38249,"name":"way/339693442","opening_hours":null,"provenance":{"/categories/0":"osm/way/339693442","lat":"osm/way/339693442","lon":"osm/way/339693442","name":"osm/way/339693442"},"sources":[{"source_id":"osm","source_record_id":"way/339693442","source_url":null}],"tags":{},"website":null},"osm/way/353289340":{"address":null,"categories":["playground"],"images":[],"last_updated":"2026-06-22","lat":51.17802,"lon":5.96335,"name":"way/353289340","opening_hours":null,"provenance":{"/categories/0":"osm/way/353289340","lat":"osm/way/353289340","lon":"osm/way/353289340","name":"osm/way/353289340"},"sources":[{"source_id":"osm","source_record_id":"way/353289340","source_url":null}],"tags":{},"website":null},"osm/way/377868301":{"address":null,"categories":["playground"],"images":[],"last_updated":"2026-06-22","lat":53.16916,"lon":6.39754,"name":"way/377868301","opening_hours":null,"provenance":{"/categories/0":"osm/way/377868301","lat":"osm/way/377868301","lon":"osm/way/377868301","name":"osm/way/377868301"},"sources":[{"source_id":"osm","source_record_id":"way/377868301","source_url":null}],"tags":{},"website":null},"osm/way/396627587":{"address":null,"categories":["playground"],"images":[],"last_updated":"2026-06-22","lat":51.84485,"lon":4.52862,"name":"way/396627587","opening_hours":null,"provenance":{"/categories/0":"osm/way/396627587","lat":"osm/way/396627587","lon":"osm/way/396627587","name":"osm/way/396627587"},"sources":[{"source_id":"osm","source_record_id":"way/396627587","source_url":null}],"tags":{},"website":null},"osm/way/398429464":{"address":null,"categories":["pool"],"images":[],"last_updated":"2026-06-22","lat":51.83421,"lon":4.69318,"name":"way/398429464","opening_hours":null,"provenance":{"/categories/0":"osm/way/398429464","lat":"osm/way/398429464","lon":"osm/way/398429464","name":"osm/way/398429464"},"sources":[{"source_id":"osm","source_record_id":"way/398429464","source_url":null}],"tags":{},"website":null},"osm/way/410000307":{"address":null,"categories":["playground"],"images":[],"last_updated":"2026-06-22","lat":53.1361,"lon":6.57244,"name":"way/410000307","opening_hours":null,"provenance":{"/categories/0":"osm/way/410000307","lat":"osm/way/410000307","lon":"osm/way/410000307","name":"osm/way/410000307"},"sources":[{"source_id":"osm","source_record_id":"way/410000307","source_url":null}],"tags":{},"website":null},"osm/way/43913933":{"address":null,"categories":["playground"],"images":[],"last_updated":"2026-06-22","lat":52.39708,"lon":4.63206,"name":"Speeltuin Burcht ter Cleeff","opening_hours":null,"provenance":{"/categories/0":"osm/way/43913933","lat":"osm/way/43913933","lon":"osm/way/43913933","name":"osm/way/43913933"},"sources":[{"source_id":"osm","source_record_id":"way/43913933","source_url":null}],"tags":{},"website":null},"osm/way/443218993":{"address":null,"categories":["playground"],"images":[],"last_updated":"2026-06-22","lat":52.48785,"lon":4.66079,"name":"way/443218993","opening_hours":null,"provenance":{"/categories/0":"osm/way/443218993","lat":"osm/way/443218993","lon":"osm/way/443218993","name":"osm/way/443218993"},"sources":[{"source_id":"osm","source_record_id":"way/443218993","source_url":null}],"tags":{},"website":null},"osm/way/443360571":{"address":null,"categories":["playground"],"images":[],"last_updated":"2026-06-22","lat":52.06522,"lon":4.91672,"name":"way/443360571","opening_hours":null,"provenance":{"/categories/0":"osm/way/443360571","lat":"osm/way/443360571","lon":"osm/way/443360571","name":"osm/way/443360571"},"sources":[{"source_id":"osm","source_record_id":"way/443360571","source_url":null}],"tags":{},"website":null},"osm/way/444441136":{"address":null,"categories":["playground"],"images":[],"last_updated":"2026-06-22","lat":51.9906,"lon":4.34294,"name":"way/444441136","opening_hours":null,"provenance":{"/categories/0":"osm/way/444441136","lat":"osm/way/444441136","lon":"osm/way/444441136","name":"osm/way/444441136"},"sources":[{"source_id":"osm","source_record_id":"way/444441136","source_url":null}],"tags":{},"website":null},"osm/way/445708261":{"address":null,"categories":["playground"],"images":[],"last_updated":"2026-06-22","lat":52.51587,"lon":4.67287,"name":"way/445708261","opening_hours":null,"provenance":{"/categories/0":"osm/way/445708261","lat":"osm/way/445708261","lon":"osm/way/445708261","name":"osm/way/445708261"},"sources":[{"source_id":"osm","source_record_id":"way/445708261","source_url":null}],"tags":{},"website":null},"osm/way/446343416":{"address":null,"categories":["playground"],"images":[],"last_updated":"2026-06-22","lat":51.97002,"lon":4.54579,"name":"way/446343416","opening_hours":null,"provenance":{"/categories/0":"osm/way/446343416","lat":"osm/way/446343416","lon":"osm/way/446343416","name":"osm/way/446343416"},"sources":[{"source_id":"osm","source_record_id":"way/446343416","source_url":null}],"tags":{},"website":null},"osm/way/44699908":{"address":null,"categories":["playground"],"images":[],"last_updated":"2026-06-22","lat":50.79593,"lon":5.77145,"name":"way/44699908","opening_hours":null,"provenance":{"/categories/0":"osm/way/44699908","lat":"osm/way/44699908","lon":"osm/way/44699908","name":"osm/way/44699908"},"sources":[{"source_id":"osm","source_record_id":"way/44699908","source_url":null}],"tags":{},"website":null},"osm/way/449044305":{"address":null,"categories":["playground"],"images":[],"last_updated":"2026-06-22","lat":52.48517,"lon":4.68491,"name":"way/449044305","opening_hours":null,"provenance":{"/categories/0":"osm/way/449044305","lat":"osm/way/449044305","lon":"osm/way/449044305","name":"osm/way/449044305"},"sources":[{"source_id":"osm","source_record_id":"way/449044305","source_url":null}],"tags":{},"website":null},"osm/way/46611791":{"address":null,"categories":["pool"],"images":[],"last_updated":"2026-06-22","lat":51.46962,"lon":5.56759,"name":"way/46611791","opening_hours":null,"provenance":{"/categories/0":"osm/way/46611791","lat":"osm/way/46611791","lon":"osm/way/46611791","name":"osm/way/46611791"},"sources":[{"source_id":"osm","source_record_id":"way/46611791","source_url":null}],"tags":{},"website":null},"osm/way/46627620":{"address":null,"categories":["pool"],"images":[],"last_updated":"2026-06-22","lat":51.67896,"lon":3.72062,"name":"way/46627620","opening_hours":null,"provenance":{"/categories/0":"osm/way/46627620","lat":"osm/way/46627620","lon":"osm/way/46627620","name":"osm/way/46627620"},"sources":[{"source_id":"osm","source_record_id":"way/46627620","source_url":null}],"tags":{},"website":null},"osm/way/47018221":{"address":null,"categories":["playground"],"images":[],"last_updated":"2026-06-22","lat":51.92575,"lon":6.55894,"name":"way/47018221","opening_hours":null,"provenance":{"/categories/0":"osm/way/47018221","lat":"osm/way/47018221","lon":"osm/way/47018221","name":"osm/way/47018221"},"sources":[{"source_id":"osm","source_record_id":"way/47018221","source_url":null}],"tags":{},"website":null},"osm/way/473533905":{"address":null,"categories":["playground"],"images":[],"last_updated":"2026-06-22","lat":51.6451,"lon":5.62572,"name":"way/473533905","opening_hours":null,"provenance":{"/categories/0":"osm/way/473533905","lat":"osm/way/473533905","lon":"osm/way/473533905","name":"osm/way/473533905"},"sources":[{"source_id":"osm","source_record_id":"way/473533905","source_url":null}],"tags":{},"website":null},"osm/way/473884016":{"address":null,"categories":["pool"],"images":[],"last_updated":"2026-06-22","lat":50.96718,"lon":5.83342,"name":"way/473884016","opening_hours":null,"provenance":{"/categories/0":"osm/way/473884016","lat":"osm/way/473884016","lon":"osm/way/473884016","name":"osm/way/473884016"},"sources":[{"source_id":"osm","source_record_id":"way/473884016","source_url":null},{"source_id":"osm","source_record_id":"way/473884017","source_url":null}],"tags":{},"website":null},"osm/way/482468124":{"address":null,"categories":["playground"],"images":[],"last_updated":"2026-06-22","lat":52.30745,"lon":4.87077,"name":"way/482468124","opening_hours":null,"provenance":{"/categories/0":"osm/way/482468124","lat":"osm/way/482468124","lon":"osm/way/482468124","name":"osm/way/482468124"},"sources":[{"source_id":"osm","source_record_id":"way/482468124","source_url":null}],"tags":{},"website":null},"osm/way/483108265":{"address":null,"categories":["playground"],"images":[],"last_updated":"2026-06-22","lat":52.05739,"lon":6.08126,"name":"De Spelerij","opening_hours":null,"provenance":{"/categories/0":"osm/way/483108265","lat":"osm/way/483108265","lon":"osm/way/483108265","name":"osm/way/483108265"},"sources":[{"source_id":"osm","source_record_id":"way/483108265","source_url":null}],"tags":{},"website":null},"osm/way/484321203":{"address":null,"categories":["playground"],"images":[],"last_updated":"2026-06-22","lat":51.53401,"lon":4.28534,"name":"way/484321203","opening_hours":null,"provenance":{"/categories/0":"osm/way/484321203","lat":"osm/way/484321203","lon":"osm/way/484321203","name":"osm/way/484321203"},"sources":[{"source_id":"osm","source_record_id":"way/484321203","source_url":null}],"tags":{},"website":null},"osm/way/491884188":{"address":null,"categories":["playground"],"images":[],"last_updated":"2026-06-22","lat":52.33446,"lon":4.95431,"name":"way/491884188","opening_hours":null,"provenance":{"/categories/0":"osm/way/491884188","lat":"osm/way/491884188","lon":"osm/way/491884188","name":"osm/way/491884188"},"sources":[{"source_id":"osm","source_record_id":"way/491884188","source_url":null}],"tags":{},"website":null},"osm/way/492998620":{"address":null,"categories":["playground"],"images":[],"last_updated":"2026-06-22","lat":51.29156,"lon":5.74932,"name":"way/492998620","opening_hours":null,"provenance":{"/categories/0":"osm/way/492998620","lat":"osm/way/492998620","lon":"osm/way/492998620","name":"osm/way/492998620"},"sources":[{"source_id":"osm","source_record_id":"way/492998620","source_url":null}],"tags":{},"website":null},"osm/way/494218209":{"address":null,"categories":["playground"],"images":[],"last_updated":"2026-06-22","lat":52.22531,"lon":6.88809,"name":"way/494218209","opening_hours":null,"provenance":{"/categories/0":"osm/way/494218209","lat":"osm/way/494218209","lon":"osm/way/494218209","name":"osm/way/494218209"},"sources":[{"source_id":"osm","source_record_id":"way/494218209","source_url":null}],"tags":{},"website":null},"osm/way/494912345":{"address":null,"categories":["playground"],"images":[],"last_updated":"2026-06-22","lat":51.89944,"lon":4.48178,"name":"way/494912345","opening_hours":null,"provenance":{"/categories/0":"osm/way/494912345","lat":"osm/way/494912345","lon":"osm/way/494912345","name":"osm/way/494912345"},"sources":[{"source_id":"osm","source_record_id":"way/494912345","source_url":null}],"tags":{},"website":null},"osm/way/499336858":{"address":null,"categories":["playground"],"images":[],"last_updated":"2026-06-22","lat":52.0682,"lon":4.47628,"name":"way/499336858","opening_hours":null,"provenance":{"/categories/0":"osm/way/499336858","lat":"osm/way/499336858","lon":"osm/way/499336858","name":"osm/way/499336858"},"sources":[{"source_id":"osm","source_record_id":"way/499336858","source_url":null}],"tags":{},"website":null},"osm/way/510829165":{"address":null,"categories":["playground"],"images":[],"last_updated":"2026-06-22","lat":53.25615,"lon":6.13813,"name":"way/510829165","opening_hours":null,"provenance":{"/categories/0":"osm/way/510829165","lat":"osm/way/510829165","lon":"osm/way/510829165","name":"osm/way/510829165"},"sources":[{"source_id":"osm","source_record_id":"way/510829165","source_url":null}],"tags":{},"website":null},"osm/way/511741138":{"address":null,"categories":["playground"],"images":[],"last_updated":"2026-06-22","lat":51.61224,"lon":4.75109,"name":"way/511741138","opening_hours":null,"provenance":{"/categories/0":"osm/way/511741138","lat":"osm/way/511741138","lon":"osm/way/511741138","name":"osm/way/511741138"},"sources":[{"source_id":"osm","source_record_id":"way/511741138","source_url":null}],"tags":{},"website":null},"osm/way/520072737":{"address":null,"categories":["playground"],"images":[],"last_updated":"2026-06-22","lat":52.20073,"lon":4.90138,"name":"way/520072737","opening_hours":null,"provenance":{"/categories/0":"osm/way/520072737","lat":"osm/way/520072737","lon":"osm/way/520072737","name":"osm/way/520072737"},"sources":[{"source_id":"osm","source_record_id":"way/520072737","source_url":null}],"tags":{},"website":null},"osm/way/521305098":{"address":null,"categories":["playground"],"images":[],"last_updated":"2026-06-22","lat":52.69686,"lon":5.17463,"name":"way/521305098","opening_hours":null,"provenance":{"/categories/0":"osm/way/521305098","lat":"osm/way/521305098","lon":"osm/way/521305098","name":"osm/way/521305098"},"sources":[{"source_id":"osm","source_record_id":"way/521305098","source_url":null}],"tags":{},"website":null},"osm/way/52713964":{"address":null,"categories":["playground"],"images":[],"last_updated":"2026-06-22","lat":52.8692,"lon":6.37276,"name":"way/52713964","opening_hours":null,"provenance":{"/categories/0":"osm/way/52713964","lat":"osm/way/52713964","lon":"osm/way/52713964","name":"osm/way/52713964"},"sources":[{"source_id":"osm","source_record_id":"way/52713964","source_url":null}],"tags":{},"website":null},"osm/way/536110476":{"address":null,"categories":["playground"],"images":[],"last_updated":"2026-06-22","lat":51.41714,"lon":5.44492,"name":"way/536110476","opening_hours":null,"provenance":{"/categories/0":"osm/way/536110476","lat":"osm/way/536110476","lon":"osm/way/536110476","name":"osm/way/536110476"},"sources":[{"source_id":"osm","source_record_id":"way/536110476","source_url":null}],"tags":{},"website":null},"osm/way/538554720":{"address":null,"categories":["zoo","petting_zoo"],"images":[],"last_updated":"2026-06-22","lat":51.64206,"lon":5.6575,"name":"Dierenpark Volkel","opening_hours":null,"provenance":{"/categories/0":"osm/way/538554720","/categories/1":"osm/way/538554720","lat":"osm/way/538554720","lon":"osm/way/538554720","name":"osm/way/538554720"},"sources":[{"source_id":"osm","source_record_id":"way/538554720","source_url":null}],"tags":{},"website":null},"osm/way/539449591":{"address":null,"categories":["playground"],"images":[],"last_updated":"2026-06-22","lat":52.85133,"lon":6.84354,"name":"way/539449591","opening_hours":null,"provenance":{"/categories/0":"osm/way/539449591","lat":"osm/way/539449591","lon":"osm/way/539449591","name":"osm/way/539449591"},"sources":[{"source_id":"osm","source_record_id":"way/539449591","source_url":null}],"tags":{},"website":null},"osm/way/547140235":{"address":null,"categories":["playground"],"images":[],"last_updated":"2026-06-22","lat":53.09817,"lon":6.05262,"name":"way/547140235","opening_hours":null,"provenance":{"/categories/0":"osm/way/547140235","lat":"osm/way/547140235","lon":"osm/way/547140235","name":"osm/way/547140235"},"sources":[{"source_id":"osm","source_record_id":"way/547140235","source_url":null}],"tags":{},"website":null},"osm/way/579311496":{"address":null,"categories":["playground"],"images":[],"last_updated":"2026-06-22","lat":52.35449,"lon":4.97239,"name":"way/579311496","opening_hours":null,"provenance":{"/categories/0":"osm/way/579311496","lat":"osm/way/579311496","lon":"osm/way/579311496","name":"osm/way/579311496"},"sources":[{"source_id":"osm","source_record_id":"way/579311496","source_url":null}],"tags":{},"website":null},"osm/way/580187147":{"address":null,"categories":["playground"],"images":[],"last_updated":"2026-06-22","lat":51.53091,"lon":5.62594,"name":"way/580187147","opening_hours":null,"provenance":{"/categories/0":"osm/way/580187147","lat":"osm/way/580187147","lon":"osm/way/580187147","name":"osm/way/580187147"},"sources":[{"source_id":"osm","source_record_id":"way/580187147","source_url":null}],"tags":{},"website":null},"osm/way/588134871":{"address":null,"categories":["playground"],"images":[],"last_updated":"2026-06-22","lat":51.55342,"lon":5.06594,"name":"way/588134871","opening_hours":null,"provenance":{"/categories/0":"osm/way/588134871","lat":"osm/way/588134871","lon":"osm/way/588134871","name":"osm/way/588134871"},"sources":[{"source_id":"osm","source_record_id":"way/588134871","source_url":null}],"tags":{},"website":null},"osm/way/589622588":{"address":null,"categories":["playground"],"images":[],"last_updated":"2026-06-22","lat":51.64254,"lon":5.63302,"name":"way/589622588","opening_hours":null,"provenance":{"/categories/0":"osm/way/589622588","lat":"osm/way/589622588","lon":"osm/way/589622588","name":"osm/way/589622588"},"sources":[{"source_id":"osm","source_record_id":"way/589622588","source_url":null},{"source_id":"osm","source_record_id":"way/589622589","source_url":null}],"tags":{},"website":null},"osm/way/59206074":{"address":null,"categories":["pool"],"images":[],"last_updated":"2026-06-22","lat":51.87554,"lon":5.98866,"name":"way/59206074","opening_hours":null,"provenance":{"/categories/0":"osm/way/59206074","lat":"osm/way/59206074","lon":"osm/way/59206074","name":"osm/way/59206074"},"sources":[{"source_id":"osm","source_record_id":"way/59206074","source_url":null}],"tags":{},"website":null},"osm/way/646341296":{"address":null,"categories":["playground"],"images":[],"last_updated":"2026-06-22","lat":52.70845,"lon":6.17606,"name":"way/646341296","opening_hours":null,"provenance":{"/categories/0":"osm/way/646341296","lat":"osm/way/646341296","lon":"osm/way/646341296","name":"osm/way/646341296"},"sources":[{"source_id":"osm","source_record_id":"way/646341296","source_url":null}],"tags":{},"website":null},"osm/way/648872363":{"address":null,"categories":["playground"],"images":[],"last_updated":"2026-06-22","lat":52.37391,"lon":5.26858,"name":"way/648872363","opening_hours":null,"provenance":{"/categories/0":"osm/way/648872363","lat":"osm/way/648872363","lon":"osm/way/648872363","name":"osm/way/648872363"},"sources":[{"source_id":"osm","source_record_id":"way/648872363","source_url":null}],"tags":{},"website":null},"osm/way/651660858":{"address":null,"categories":["playground"],"images":[],"last_updated":"2026-06-22","lat":52.25898,"lon":4.62194,"name":"way/651660858","opening_hours":null,"provenance":{"/categories/0":"osm/way/651660858","lat":"osm/way/651660858","lon":"osm/way/651660858","name":"osm/way/651660858"},"sources":[{"source_id":"osm","source_record_id":"way/651660858","source_url":null}],"tags":{},"website":null},"osm/way/652837745":{"address":null,"categories":["playground"],"images":[],"last_updated":"2026-06-22","lat":51.9208,"lon":6.61142,"name":"way/652837745","opening_hours":null,"provenance":{"/categories/0":"osm/way/652837745","lat":"osm/way/652837745","lon":"osm/way/652837745","name":"osm/way/652837745"},"sources":[{"source_id":"osm","source_record_id":"way/652837745","source_url":null}],"tags":{},"website":null},"osm/way/667397959":{"address":null,"categories":["playground"],"images":[],"last_updated":"2026-06-22","lat":51.89143,"lon":4.53453,"name":"way/667397959","opening_hours":null,"provenance":{"/categories/0":"osm/way/667397959","lat":"osm/way/667397959","lon":"osm/way/667397959","name":"osm/way/667397959"},"sources":[{"source_id":"osm","source_record_id":"way/667397959","source_url":null}],"tags":{},"website":null},"osm/way/667566889":{"address":null,"categories":["playground"],"images":[],"last_updated":"2026-06-22","lat":51.60821,"lon":4.78104,"name":"way/667566889","opening_hours":null,"provenance":{"/categories/0":"osm/way/667566889","lat":"osm/way/667566889","lon":"osm/way/667566889","name":"osm/way/667566889"},"sources":[{"source_id":"osm","source_record_id":"way/667566889","source_url":null}],"tags":{},"website":null},"osm/way/680517981":{"address":null,"categories":["playground"],"images":[],"last_updated":"2026-06-22","lat":53.20323,"lon":5.80789,"name":"way/680517981","opening_hours":null,"provenance":{"/categories/0":"osm/way/680517981","lat":"osm/way/680517981","lon":"osm/way/680517981","name":"osm/way/680517981"},"sources":[{"source_id":"osm","source_record_id":"way/680517981","source_url":null}],"tags":{},"website":null},"osm/way/684610349":{"address":null,"categories":["playground"],"images":[],"last_updated":"2026-06-22","lat":52.59205,"lon":6.59377,"name":"way/684610349","opening_hours":null,"provenance":{"/categories/0":"osm/way/684610349","lat":"osm/way/684610349","lon":"osm/way/684610349","name":"osm/way/684610349"},"sources":[{"source_id":"osm","source_record_id":"way/684610349","source_url":null}],"tags":{},"website":null},"osm/way/689337814":{"address":null,"categories":["playground"],"images":[],"last_updated":"2026-06-22","lat":52.31454,"lon":5.04766,"name":"way/689337814","opening_hours":null,"provenance":{"/categories/0":"osm/way/689337814","lat":"osm/way/689337814","lon":"osm/way/689337814","name":"osm/way/689337814"},"sources":[{"source_id":"osm","source_record_id":"way/689337814","source_url":null}],"tags":{},"website":null},"osm/way/69162735":{"address":null,"categories":["playground"],"images":[],"last_updated":"2026-06-22","lat":51.94893,"lon":5.20209,"name":"way/69162735","opening_hours":null,"provenance":{"/categories/0":"osm/way/69162735","lat":"osm/way/69162735","lon":"osm/way/69162735","name":"osm/way/69162735"},"sources":[{"source_id":"osm","source_record_id":"way/69162735","source_url":null}],"tags":{},"website":null},"osm/way/693516021":{"address":null,"categories":["playground"],"images":[],"last_updated":"2026-06-22","lat":52.14739,"lon":4.44715,"name":"way/693516021","opening_hours":null,"provenance":{"/categories/0":"osm/way/693516021","lat":"osm/way/693516021","lon":"osm/way/693516021","name":"osm/way/693516021"},"sources":[{"source_id":"osm","source_record_id":"way/693516021","source_url":null}],"tags":{},"website":null},"osm/way/697138524":{"address":null,"categories":["playground"],"images":[],"last_updated":"2026-06-22","lat":52.11579,"lon":4.44328,"name":"way/697138524","opening_hours":null,"provenance":{"/categories/0":"osm/way/697138524","lat":"osm/way/697138524","lon":"osm/way/697138524","name":"osm/way/697138524"},"sources":[{"source_id":"osm","source_record_id":"way/697138524","source_url":null},{"source_id":"osm","source_record_id":"way/697138526","source_url":null}],"tags":{},"website":null},"osm/way/704813840":{"address":null,"categories":["playground"],"images":[],"last_updated":"2026-06-22","lat":51.9369,"lon":6.06529,"name":"way/704813840","opening_hours":null,"provenance":{"/categories/0":"osm/way/704813840","lat":"osm/way/704813840","lon":"osm/way/704813840","name":"osm/way/704813840"},"sources":[{"source_id":"osm","source_record_id":"way/704813840","source_url":null}],"tags":{},"website":null},"osm/way/712246335":{"address":null,"categories":["playground"],"images":[],"last_updated":"2026-06-22","lat":52.09466,"lon":6.5089,"name":"way/712246335","opening_hours":null,"provenance":{"/categories/0":"osm/way/712246335","lat":"osm/way/712246335","lon":"osm/way/712246335","name":"osm/way/712246335"},"sources":[{"source_id":"osm","source_record_id":"way/712246335","source_url":null}],"tags":{},"website":null},"osm/way/71289183":{"address":null,"categories":["playground"],"images":[],"last_updated":"2026-06-22","lat":51.73089,"lon":5.31744,"name":"Panna-kooi","opening_hours":null,"provenance":{"/categories/0":"osm/way/71289183","lat":"osm/way/71289183","lon":"osm/way/71289183","name":"osm/way/71289183"},"sources":[{"source_id":"osm","source_record_id":"way/71289183","source_url":null}],"tags":{},"website":null},"osm/way/71383810":{"address":null,"categories":["zoo","petting_zoo"],"images":[],"last_updated":"2026-06-22","lat":52.08435,"lon":5.25476,"name":"Hertenkamp","opening_hours":null,"provenance":{"/categories/0":"osm/way/71383810","/categories/1":"osm/way/71383810","lat":"osm/way/71383810","lon":"osm/way/71383810","name":"osm/way/71383810"},"sources":[{"source_id":"osm","source_record_id":"way/71383810","source_url":null}],"tags":{},"website":null},"osm/way/729957774":{"address":null,"categories":["playground"],"images":[],"last_updated":"2026-06-22","lat":51.83004,"lon":4.31252,"name":"way/729957774","opening_hours":null,"provenance":{"/categories/0":"osm/way/729957774","lat":"osm/way/729957774","lon":"osm/way/729957774","name":"osm/way/729957774"},"sources":[{"source_id":"osm","source_record_id":"way/729957774","source_url":null}],"tags":{},"website":null},"osm/way/73437861":{"address":null,"categories":["playground"],"images":[],"last_updated":"2026-06-22","lat":52.11636,"lon":5.10765,"name":"way/73437861","opening_hours":null,"provenance":{"/categories/0":"osm/way/73437861","lat":"osm/way/73437861","lon":"osm/way/73437861","name":"osm/way/73437861"},"sources":[{"source_id":"osm","source_record_id":"way/73437861","source_url":null}],"tags":{},"website":null},"osm/way/758450158":{"address":null,"categories":["playground"],"images":[],"last_updated":"2026-06-22","lat":52.66505,"lon":4.82928,"name":"way/758450158","opening_hours":null,"provenance":{"/categories/0":"osm/way/758450158","lat":"osm/way/758450158","lon":"osm/way/758450158","name":"osm/way/758450158"},"sources":[{"source_id":"osm","source_record_id":"way/758450158","source_url":null}],"tags":{},"website":null},"osm/way/770695610":{"address":null,"categories":["playground"],"images":[],"last_updated":"2026-06-22","lat":51.59886,"lon":5.66684,"name":"way/770695610","opening_hours":null,"provenance":{"/categories/0":"osm/way/770695610","lat":"osm/way/770695610","lon":"osm/way/770695610","name":"osm/way/770695610"},"sources":[{"source_id":"osm","source_record_id":"way/770695610","source_url":null}],"tags":{},"website":null},"osm/way/77694556":{"address":null,"categories":["playground"],"images":[],"last_updated":"2026-06-22","lat":50.7662,"lon":6.01619,"name":"Zeven Eiken","opening_hours":null,"provenance":{"/categories/0":"osm/way/77694556","lat":"osm/way/77694556","lon":"osm/way/77694556","name":"osm/way/77694556"},"sources":[{"source_id":"osm","source_record_id":"way/77694556","source_url":null}],"tags":{},"website":null},"osm/way/77737648":{"address":null,"categories":["playground"],"images":[],"last_updated":"2026-06-22","lat":51.5417,"lon":4.94927,"name":"way/77737648","opening_hours":null,"provenance":{"/categories/0":"osm/way/77737648","lat":"osm/way/77737648","lon":"osm/way/77737648","name":"osm/way/77737648"},"sources":[{"source_id":"osm","source_record_id":"way/77737648","source_url":null}],"tags":{},"website":null},"osm/way/779431437":{"address":null,"categories":["playground"],"images":[],"last_updated":"2026-06-22","lat":52.65085,"lon":5.06274,"name":"way/779431437","opening_hours":null,"provenance":{"/categories/0":"osm/way/779431437","lat":"osm/way/779431437","lon":"osm/way/779431437","name":"osm/way/779431437"},"sources":[{"source_id":"osm","source_record_id":"way/779431437","source_url":null}],"tags":{},"website":null},"osm/way/784885674":{"address":null,"categories":["playground"],"images":[],"last_updated":"2026-06-22","lat":52.69942,"lon":6.2346,"name":"way/784885674","opening_hours":null,"provenance":{"/categories/0":"osm/way/784885674","lat":"osm/way/784885674","lon":"osm/way/784885674","name":"osm/way/784885674"},"sources":[{"source_id":"osm","source_record_id":"way/784885674","source_url":null}],"tags":{},"website":null},"osm/way/795248305":{"address":null,"categories":["playground"],"images":[],"last_updated":"2026-06-22","lat":51.87327,"lon":4.7858,"name":"'t Pleintje","opening_hours":null,"provenance":{"/categories/0":"osm/way/795248305","lat":"osm/way/795248305","lon":"osm/way/795248305","name":"osm/way/795248305"},"sources":[{"source_id":"osm","source_record_id":"way/795248305","source_url":null}],"tags":{},"website":null},"osm/way/79756056":{"address":null,"categories":["playground"],"images":[],"last_updated":"2026-06-22","lat":51.72949,"lon":5.43048,"name":"way/79756056","opening_hours":null,"provenance":{"/categories/0":"osm/way/79756056","lat":"osm/way/79756056","lon":"osm/way/79756056","name":"osm/way/79756056"},"sources":[{"source_id":"osm","source_record_id":"way/79756056","source_url":null}],"tags":{},"website":null},"osm/way/803007791":{"address":null,"categories":["playground"],"images":[],"last_updated":"2026-06-22","lat":51.83062,"lon":5.01253,"name":"way/803007791","opening_hours":null,"provenance":{"/categories/0":"osm/way/803007791","lat":"osm/way/803007791","lon":"osm/way/803007791","name":"osm/way/803007791"},"sources":[{"source_id":"osm","source_record_id":"way/803007791","source_url":null}],"tags":{},"website":null},